stop_id, stop_code, stop_name, stop_desc, stop_lat, stop_lon, zone_id, stop_url, location_type, parent_station, stop_timezone, wheelchair_boarding
21, 733, "Ābeles", , 56.7193466, 24.1112348, 21, , , , , 
22, 733, "Ābeles", , 56.7202383, 24.1114136, 22, , , , , 
34, 922, "Ādiņas", , 56.8796140, 24.1729634, 34, , , , , 
35, 922, "Ādiņas", , 56.8797002, 24.1728810, 35, , , , , 
42, 5542, "Aizklāņi", , 57.6672248, 22.5702412, 42, , , , , 
43, 5542, "Aizklāņi", , 57.6678935, 22.5705806, 43, , , , , 
48, 8281, "Aizkraukles pagasts", , 56.6169493, 25.2188174, 48, , , , , 
64, 2676, "Akmeņkalni", , 57.7444896, 24.3942193, 64, , , , , 
66, 3741, "Akmeņu iela", , 56.8044805, 24.6103194, 66, , , , , 
69, 9609, "Aknīstes vidusskola", , 56.1633306, 25.7369725, 69, , , , , 
112, 7526, "Apsāni", , 56.2102135, 26.9411628, 112, , , , , 
116, 2847, "Apšukalni", , 56.8160908, 24.0627968, 116, , , , , 
117, 2847, "Apšukalni", , 56.8164660, 24.0629910, 117, , , , , 
126, 2203, "Ārdava", , 56.1416046, 26.8297349, 126, , , , , 
127, 5576, "Arodskola", , 56.6081633, 25.2587349, 127, , , , , 
145, 4073, "Atpiļi", , 57.5571102, 25.7327833, 145, , , , , 
146, 4073, "Atpiļi", , 57.5574759, 25.7338654, 146, , , , , 
171, 5599, "Aurora", , 56.8340187, 24.1039964, 171, , , , , 
180, 541, "Austrumi", , 56.6702355, 25.3525853, 180, , , , , 
185, 1079, "Aviators", , 56.7241279, 24.2137395, 185, , , , , 
186, 1079, "Aviators", , 56.7250828, 24.2119395, 186, , , , , 
197, 5622, "Katlakalna tautas nams", , 56.8755051, 24.1792433, 197, , , , , 
198, 5622, "Katlakalna tautas nams", , 56.8755873, 24.1787122, 198, , , , , 
221, 5740, "Sporta iela", , 57.5090260, 24.7095091, 221, , , , , 
237, 5769, "PII Zeltrīti", , 56.8899591, 24.0506797, 237, , , , , 
242, 5790, "Attekas iela", , 57.0730740, 24.3326200, 242, , , , , 
252, 759, "Laivu iela", , 56.7214741, 24.7800141, 252, , , , , 
253, 759, "Laivu iela", , 56.7219064, 24.7784314, 253, , , , , 
258, 6182, "DIS Gaujmala", , 57.1338089, 24.3080891, 258, , , , , 
362, 969, "Baloži", , 56.8760993, 24.1221597, 362, , , , , 
363, 969, "Baloži", , 56.8764612, 24.1231736, 363, , , , , 
366, 3594, "Baloži", , 56.8631200, 22.4045062, 366, , , , , 
368, 5877, "Baložu skola", , 56.8748685, 24.1188586, 368, , , , , 
369, 3961, "Baložu stacija", , 56.8453168, 24.0462022, 369, , , , , 
370, 3961, "Baložu stacija", , 56.8459159, 24.0471121, 370, , , , , 
371, 5879, "Baltais flīģelis", , 57.1526336, 24.8480068, 371, , , , , 
379, 5880, "Banga", , 57.5084678, 22.7953638, 379, , , , , 
380, 5880, "Banga", , 57.5080927, 22.7966787, 380, , , , , 
383, 164, "Bārdaskrogs", , 57.5708127, 26.9550200, 383, , , , , 
393, 4320, "Baznīca", , 56.7422823, 24.3922178, 393, , , , , 
394, 4320, "Baznīca", , 56.7423410, 24.3938648, 394, , , , , 
410, 3820, "Beļauski", , 56.8444116, 27.1084887, 410, , , , , 
411, 3820, "Beļauski", , 56.8445379, 27.1081708, 411, , , , , 
451, 5906, "Beta", , 56.6056921, 25.2633091, 451, , , , , 
452, 5906, "Beta", , 56.6051054, 25.2640007, 452, , , , , 
469, 5920, "Olaines 2. vidusskola", , 56.7824880, 23.9320123, 469, , , , , 
471, 5923, "Stacijas iela", , 56.7814383, 23.9357896, 471, , , , , 
472, 5924, "Koledža", , 56.7876055, 23.9430930, 472, , , , , 
473, 3652, "Dzelzceļnieku ciems", , 56.8060940, 23.9923270, 473, , , , , 
474, 3652, "Dzelzceļnieku ciems", , 56.8069432, 23.9933470, 474, , , , , 
476, 5928, "Rīgas iela", , 56.7918278, 23.9464890, 476, , , , , 
477, 5928, "Rīgas iela", , 56.7920887, 23.9467877, 477, , , , , 
478, 5931, "Olaines 1. vidusskola", , 56.7882269, 23.9407410, 478, , , , , 
479, 5933, "Zeiferta iela", , 56.7890908, 23.9386672, 479, , , , , 
480, 5933, "Zeiferta iela", , 56.7895017, 23.9376064, 480, , , , , 
481, 5935, "Jelgavas iela", , 56.7880288, 23.9347189, 481, , , , , 
482, 5935, "Jelgavas iela", , 56.7884314, 23.9353104, 482, , , , , 
483, 5937, "Veselības iela", , 56.7856308, 23.9351114, 483, , , , , 
484, 5937, "Veselības iela", , 56.7860032, 23.9343731, 484, , , , , 
485, 5952, "Pašvaldība", , 56.7842079, 23.9362863, 485, , , , , 
486, 5952, "Pašvaldība", , 56.7842944, 23.9367725, 486, , , , , 
512, 5968, "Biržas iela", , 56.5409195, 27.7109134, 512, , , , , 
513, 5968, "Biržas iela", , 56.5406187, 27.7106812, 513, , , , , 
518, 2078, "Bites", , 56.7509036, 24.1071135, 518, , , , , 
519, 2078, "Bites", , 56.7514785, 24.1075459, 519, , , , , 
520, 633, "Bites", , 56.3140231, 21.0932286, 520, , , , , 
521, 3922, "Blankas", , 57.9143279, 25.0403453, 521, , , , , 
522, 3922, "Blankas", , 57.9154207, 25.0393852, 522, , , , , 
530, 1122, "Blusi", , 55.9467867, 27.5324922, 530, , , , , 
563, 7416, "Brocēnu krustojums", , 56.6841154, 22.5659159, 563, , , , , 
598, 332, "Celtnieks", , 56.7072146, 24.1130197, 598, , , , , 
599, 332, "Celtnieks", , 56.7074881, 24.1132538, 599, , , , , 
611, 1444, "Cenas", , 56.7033780, 23.8161090, 611, , , , , 
612, 1444, "Cenas", , 56.7040442, 23.8169422, 612, , , , , 
615, 9399, "Centrālā slimnīca", , 56.5530640, 21.0916120, 615, , , , , 
623, 2017, "Ceriņi", , 56.6992517, 24.0695909, 623, , , , , 
624, 2017, "Ceriņi", , 56.6993950, 24.0685375, 624, , , , , 
636, 4522, "Cielavas", , 56.8950037, 23.8032144, 636, , , , , 
647, 6086, "Cirsmas", , 56.9680660, 24.6616612, 647, , , , , 
648, 6086, "Cirsmas", , 56.9683206, 24.6608548, 648, , , , , 
649, 7376, "Cirši", , 55.9421439, 26.7183214, 649, , , , , 
650, 7376, "Cirši", , 55.9421502, 26.7181754, 650, , , , , 
659, 6598, "Jēkabpils (Cukurfabrikas iela)", , 56.5173228, 25.8539961, 659, , , , , 
660, 6092, "Čabas", , 56.7688987, 24.6466628, 660, , , , , 
663, 4231, "Čagas", , 56.8029802, 24.2485378, 663, , , , , 
676, 2816, "Dākas", , 56.6968506, 24.3286112, 676, , , , , 
677, 2816, "Dākas", , 56.6973009, 24.3294358, 677, , , , , 
685, 4953, "Dambji", , 56.7993373, 24.0747097, 685, , , , , 
686, 4953, "Dambji", , 56.8004054, 24.0748158, 686, , , , , 
700, 3560, "Darbnīcas", , 57.2872425, 26.4324518, 700, , , , , 
701, 3560, "Darbnīcas", , 57.2875064, 26.4327966, 701, , , , , 
737, 374, "Dāvji", , 56.7113887, 24.1124492, 737, , , , , 
738, 374, "Dāvji", , 56.7120825, 24.1126215, 738, , , , , 
742, 1512, "Degļupe 1", , 57.2056027, 26.1242319, 742, , , , , 
743, 1512, "Degļupe 1", , 57.2058220, 26.1266647, 743, , , , , 
755, 3851, "Dimanti", , 56.8289668, 24.2314719, 755, , , , , 
756, 3851, "Dimanti", , 56.8295881, 24.2317330, 756, , , , , 
817, 9506, "DUS", , 56.5289681, 27.7370048, 817, , , , , 
823, 4731, "Dzelzceļa pārbrauktuve", , 56.8596809, 24.3485628, 823, , , , , 
824, 4731, "Dzelzceļa pārbrauktuve", , 56.8601796, 24.3493691, 824, , , , , 
840, 9503, "Dzirnavu iela", , 56.5364451, 27.7327604, 840, , , , , 
841, 1794, "Dzirnavu iela", , 56.7429946, 24.3794652, 841, , , , , 
842, 1794, "Dzirnavu iela", , 56.7430369, 24.3780497, 842, , , , , 
843, 4846, "Dzirnieki", , 56.5657254, 23.8744929, 843, , , , , 
844, 4846, "Dzirnieki", , 56.5657655, 23.8743328, 844, , , , , 
853, 6205, "Egļuciems", , 56.9636203, 23.8596291, 853, , , , , 
854, 6205, "Egļuciems", , 56.9636801, 23.8606393, 854, , , , , 
855, 554, "Krustkalni", , 56.8955199, 24.1410601, 855, , , , , 
862, 3341, "Enerģētiķi", , 56.9149029, 24.3351473, 862, , , , , 
863, 3341, "Enerģētiķi", , 56.9149677, 24.3364298, 863, , , , , 
877, 220, "Ērgļu klintis", , 57.3541116, 25.2610016, 877, , , , , 
878, 2990, "Ermiķi", , 57.3176829, 26.8971868, 878, , , , , 
879, 2990, "Ermiķi", , 57.3179242, 26.8956419, 879, , , , , 
916, 9577, "Galenieki", , 56.6455105, 23.2553178, 916, , , , , 
918, 4100, "Garkalne", , 57.0741820, 24.4361620, 918, , , , , 
924, 6232, "Garupe", , 57.1141423, 24.2409421, 924, , , , , 
925, 6232, "Garupe", , 57.1142571, 24.2412553, 925, , , , , 
939, 4686, "Glinovka", , 55.8349104, 26.6022887, 939, , , , , 
940, 4686, "Glinovka", , 55.8356657, 26.6004087, 940, , , , , 
959, 4546, "Grēnes", , 56.7939995, 23.9690978, 959, , , , , 
960, 4546, "Grēnes", , 56.7941884, 23.9687642, 960, , , , , 
971, 3237, "Gundegas", , 55.8384539, 26.5264004, 971, , , , , 
972, 3237, "Gundegas", , 55.8388261, 26.5265620, 972, , , , , 
984, 6299, "Ģimnāzija", , 56.4998054, 25.8565359, 984, , , , , 
1021, 2529, "Institūta iela", , 57.1500958, 24.8911295, 1021, , , , , 
1022, 6308, "Institūts", , 56.9428230, 24.2846374, 1022, , , , , 
1023, 6308, "Institūts", , 56.9430090, 24.2835417, 1023, , , , , 
1039, 9508, "Isnauda", , 56.5251981, 27.7364747, 1039, , , , , 
1059, 6315, "Jāņukalns", , 56.9596377, 24.6217675, 1059, , , , , 
1060, 6315, "Jāņukalns", , 56.9589848, 24.6206877, 1060, , , , , 
1061, 1722, "Jāņukrogs", , 56.7230209, 23.1473073, 1061, , , , , 
1062, 1722, "Jāņukrogs", , 56.7238523, 23.1463348, 1062, , , , , 
1063, 1330, "Jāņupe", , 56.6938064, 24.1108107, 1063, , , , , 
1064, 1330, "Jāņupe", , 56.6939968, 24.1118577, 1064, , , , , 
1086, 6321, "Jaunmārupes pamatskola", , 56.8801709, 23.9459523, 1086, , , , , 
1133, 6333, "Kadagas ceļš", , 57.0927922, 24.3606864, 1133, , , , , 
1134, 6333, "Kadagas ceļš", , 57.0932654, 24.3621623, 1134, , , , , 
1137, 2886, "Kaive", , 57.0550629, 25.6246279, 1137, , , , , 
1172, 493, "Kalnciema ceļš", , 56.6575254, 23.7420283, 1172, , , , , 
1183, 4920, "Kalniņi", , 56.7827410, 24.0938191, 1183, , , , , 
1184, 4920, "Kalniņi", , 56.7831348, 24.0929663, 1184, , , , , 
1200, 9363, "Kangaru stacija", , 56.9408939, 24.6120507, 1200, , , , , 
1228, 5353, "Karjers", , 56.9592853, 22.9420806, 1228, , , , , 
1229, 5353, "Karjers", , 56.9597873, 22.9410301, 1229, , , , , 
1251, 3608, "Katoļu baznīca", , 57.7511014, 24.3582154, 1251, , , , , 
1265, 2046, "Kazanova", , 55.9434963, 27.1623106, 1265, , , , , 
1266, 2046, "Kazanova", , 55.9444802, 27.1623189, 1266, , , , , 
1269, 3368, "Kažoki", , 56.7161889, 24.2331694, 1269, , , , , 
1270, 3368, "Kažoki", , 56.7165517, 24.2320747, 1270, , , , , 
1307, 1095, "Kokaudzētava", , 56.6144462, 25.7840515, 1307, , , , , 
1308, 2848, "Kokini", , 55.9705991, 26.7100008, 1308, , , , , 
1309, 2848, "Kokini", , 55.9706931, 26.7100160, 1309, , , , , 
1312, 1143, "Koltovi", , 56.7948879, 27.2513243, 1312, , , , , 
1313, 1143, "Koltovi", , 56.7949158, 27.2517694, 1313, , , , , 
1321, 1919, "Kori", , 57.7105512, 24.6409666, 1321, , , , , 
1322, 1919, "Kori", , 57.7108763, 24.6404582, 1322, , , , , 
1399, 2461, "Kubas", , 56.7497057, 24.3423164, 1399, , , , , 
1400, 2461, "Kubas", , 56.7500637, 24.3419794, 1400, , , , , 
1435, 7622, "Kursīši 2", , 57.3810468, 24.4056072, 1435, , , , , 
1445, 2875, "Kvašņeva", , 56.9806121, 27.6162769, 1445, , , , , 
1446, 2875, "Kvašņeva", , 56.9806919, 27.6164308, 1446, , , , , 
1455, 213, "Ķesterciems", , 57.1163570, 23.2268802, 1455, , , , , 
1456, 213, "Ķesterciems", , 57.1165270, 23.2271301, 1456, , , , , 
1465, 510, "Ķipari", , 57.1628240, 24.8878028, 1465, , , , , 
1488, 2105, "L.Paegles iela", , 56.5349257, 27.6974927, 1488, , , , , 
1517, 6438, "Lapiņu dambis", , 56.8781117, 24.0668252, 1517, , , , , 
1518, 6438, "Lapiņu dambis", , 56.8791232, 24.0675840, 1518, , , , , 
1519, 6444, "Lapsas", , 56.9052527, 23.8337899, 1519, , , , , 
1525, 9502, "Latgales šķērsiela", , 56.5313765, 27.7369469, 1525, , , , , 
1538, 3561, "Lazdas", , 56.6969156, 24.0842602, 1538, , , , , 
1539, 3561, "Lazdas", , 56.6983236, 24.0813981, 1539, , , , , 
1552, 4293, "Leimaņi", , 57.5669879, 25.8114060, 1552, , , , , 
1553, 4293, "Leimaņi", , 57.5674993, 25.8107615, 1553, , , , , 
1563, 3566, "Lībieši", , 56.6991626, 24.0756931, 1563, , , , , 
1564, 3566, "Lībieši", , 56.6993145, 24.0746709, 1564, , , , , 
1565, 1721, "Lībieši", , 56.2733437, 24.1316859, 1565, , , , , 
1580, 2670, "Lielauce", , 56.5226998, 22.8957944, 1580, , , , , 
1584, 270, "Lielie Garanči", , 56.5013574, 27.2961690, 1584, , , , , 
1590, 6450, "Lielplatone", , 56.4513115, 23.6660021, 1590, , , , , 
1596, 9374, "Liepājas iela", , 56.8568084, 26.2077384, 1596, , , , , 
1597, 2748, "Liepas", , 56.6856806, 24.1271052, 1597, , , , , 
1598, 4749, "Liepas", , 56.4062324, 24.7303236, 1598, , , , , 
1599, 4749, "Liepas", , 56.4063875, 24.7292521, 1599, , , , , 
1613, 6454, "Liepziedi", , 56.9432688, 24.2574394, 1613, , , , , 
1614, 6454, "Liepziedi", , 56.9433756, 24.2565183, 1614, , , , , 
1628, 6456, "Lindes", , 56.8870500, 24.0709240, 1628, , , , , 
1629, 6456, "Lindes", , 56.8883062, 24.0719377, 1629, , , , , 
1654, 9544, "Lupandu ciems", , 55.7931101, 27.5376463, 1654, , , , , 
1674, 6460, "Mākslas skola", , 56.5981015, 25.2476039, 1674, , , , , 
1675, 6460, "Mākslas skola", , 56.5979920, 25.2474767, 1675, , , , , 
1682, 6461, "Mārasciems", , 56.8898354, 24.0377026, 1682, , , , , 
1693, 269, "Mazie Garanči", , 56.5092365, 27.3109721, 1693, , , , , 
1698, 3894, "Mazlūkas", , 56.7762701, 24.1105922, 1698, , , , , 
1699, 3894, "Mazlūkas", , 56.7767141, 24.1104192, 1699, , , , , 
1700, 3669, "Mazpūķi", , 56.7693599, 24.7723137, 1700, , , , , 
1701, 3669, "Mazpūķi", , 56.7695154, 24.7720075, 1701, , , , , 
1708, 3555, "Medņi", , 56.6992094, 24.0611668, 1708, , , , , 
1709, 3555, "Medņi", , 56.6993010, 24.0602849, 1709, , , , , 
1716, 6463, "Medzābaki", , 57.1842774, 24.3440143, 1716, , , , , 
1717, 6463, "Medzābaki", , 57.1858466, 24.3451920, 1717, , , , , 
1722, 978, "Meijas", , 56.8131817, 24.2652708, 1722, , , , , 
1723, 978, "Meijas", , 56.8132216, 24.2635631, 1723, , , , , 
1751, 4851, "Meža iela", , 56.8814359, 24.1396041, 1751, , , , , 
1752, 4851, "Meža iela", , 56.8814611, 24.1402020, 1752, , , , , 
1788, 6471, "Mežsargs", , 57.0690412, 24.4903192, 1788, , , , , 
1789, 6471, "Mežsargs", , 57.0701401, 24.4882114, 1789, , , , , 
1836, 6477, "Murjāņu iela", , 57.2558070, 24.4143700, 1836, , , , , 
1837, 6477, "Murjāņu iela", , 57.2559809, 24.4147687, 1837, , , , , 
1841, 9475, "Mūsas tilts", , 56.4004825, 24.1750215, 1841, , , , , 
1843, 6479, "Nagaiņi", , 57.1210511, 24.2998043, 1843, , , , , 
1844, 6479, "Nagaiņi", , 57.1213845, 24.2998020, 1844, , , , , 
1848, 9622, "Nākotnes ciems", , 56.6194128, 23.4429211, 1848, , , , , 
1849, 9622, "Nākotnes ciems", , 56.6194722, 23.4416905, 1849, , , , , 
1858, 1131, "Nauļāni", , 55.9839251, 27.6649551, 1858, , , , , 
1859, 1976, "Neicenieki", , 56.2760618, 26.3629566, 1859, , , , , 
1860, 1976, "Neicenieki", , 56.2761811, 26.3625959, 1860, , , , , 
1927, 4599, "Ozollejas", , 56.6936179, 24.0878001, 1927, , , , , 
1928, 4599, "Ozollejas", , 56.6948470, 24.0869746, 1928, , , , , 
1948, 1115, "Blankenfeldes pagrieziens", , 56.4188303, 23.5589085, 1948, , , , , 
1950, 1116, "Pagrieziens uz Birzniekiem", , 56.8310389, 24.0467750, 1950, , , , , 
1951, 1116, "Pagrieziens uz Birzniekiem", , 56.8312571, 24.0465999, 1951, , , , , 
1959, 3601, "Pagrieziens uz Dzērumiem", , 56.7102423, 24.2455023, 1959, , , , , 
1960, 3601, "Pagrieziens uz Dzērumiem", , 56.7107190, 24.2452414, 1960, , , , , 
1966, 531, "Pagrieziens uz Ieviņām", , 56.8608301, 24.0786879, 1966, , , , , 
1972, 4857, "Pagrieziens uz Ķekavu", , 56.7721207, 24.1108829, 1972, , , , , 
1973, 4857, "Pagrieziens uz Ķekavu", , 56.7725250, 24.1113175, 1973, , , , , 
1978, 2756, "Pagrieziens uz Olaini", , 56.7887843, 24.0758160, 1978, , , , , 
1979, 2756, "Pagrieziens uz Olaini", , 56.7893683, 24.0760483, 1979, , , , , 
1980, 532, "Pagrieziens uz Piņķiem", , 56.9457992, 23.9195543, 1980, , , , , 
1992, 4843, "Tukuma pagrieziens", , 57.0420142, 23.3769502, 1992, , , , , 
1993, 4843, "Tukuma pagrieziens", , 57.0411770, 23.3808234, 1993, , , , , 
1998, 3321, "Pakuļi", , 56.6298103, 23.8220352, 1998, , , , , 
1999, 3321, "Pakuļi", , 56.6299988, 23.8210444, 1999, , , , , 
2002, 1763, "Palejas", , 56.4076429, 24.7763479, 2002, , , , , 
2003, 1763, "Palejas", , 56.4077279, 24.7766370, 2003, , , , , 
2044, 2562, "Pērses tilts", , 56.6457606, 25.3874408, 2044, , , , , 
2053, 6505, "Pienavas centrs", , 56.7406042, 23.2482733, 2053, , , , , 
2087, 4129, "Pļavniekkalns", , 56.8725622, 24.1712515, 2087, , , , , 
2088, 4129, "Pļavniekkalns", , 56.8735779, 24.1701116, 2088, , , , , 
2089, 6512, "Pļavu iela", , 56.8823215, 23.9416675, 2089, , , , , 
2090, 6512, "Pļavu iela", , 56.8823743, 23.9418748, 2090, , , , , 
2143, 3327, "Pudinava 2", , 56.7245655, 27.7250708, 2143, , , , , 
2144, 3327, "Pudinava 2", , 56.7251544, 27.7249752, 2144, , , , , 
2171, 1829, "Puriņi", , 56.6907506, 24.0960514, 2171, , , , , 
2172, 1829, "Puriņi", , 56.6908780, 24.0950776, 2172, , , , , 
2192, 6542, "Radiocentrs", , 56.9428892, 24.2697824, 2192, , , , , 
2193, 6542, "Radiocentrs", , 56.9430443, 24.2691749, 2193, , , , , 
2194, 1145, "Radiotehnika", , 56.7255937, 24.1879952, 2194, , , , , 
2195, 1145, "Radiotehnika", , 56.7256074, 24.1881919, 2195, , , , , 
2210, 3398, "Rāmava", , 56.8919230, 24.1482527, 2210, , , , , 
2214, 2425, "Rāmuļu skola", , 57.2117345, 25.4135210, 2214, , , , , 
2215, 2425, "Rāmuļu skola", , 57.2121456, 25.4129870, 2215, , , , , 
2239, 6546, "Remberģi", , 57.0668870, 24.4781410, 2239, , , , , 
2240, 6546, "Remberģi", , 57.0632690, 24.4726110, 2240, , , , , 
2241, 1046, "Rencēni", , 57.1868789, 25.3252167, 2241, , , , , 
2242, 1046, "Rencēni", , 57.1852346, 25.3252787, 2242, , , , , 
2253, 554, "Krustkalni", , 56.8943488, 24.1421639, 2253, , , , , 
2290, 4557, "Rožkalni", , 56.7283005, 24.1979123, 2290, , , , , 
2291, 4557, "Rožkalni", , 56.7285623, 24.1968487, 2291, , , , , 
2330, 2734, "Rūpnieki", , 57.3305072, 26.9956781, 2330, , , , , 
2331, 2734, "Rūpnieki", , 57.3306088, 26.9955742, 2331, , , , , 
2353, 559, "Sanatorija "Dzintarkrasts"", , 56.9691507, 23.5739474, 2353, , , , , 
2354, 559, "Sanatorija "Dzintarkrasts"", , 56.9696410, 23.5719250, 2354, , , , , 
2367, 285, "Sarma", , 56.8957141, 24.1474051, 2367, , , , , 
2368, 285, "Sarma", , 56.8971524, 24.1474443, 2368, , , , , 
2384, 2745, "Saurieši", , 56.9121154, 24.3644115, 2384, , , , , 
2387, 6564, "SCO", , 56.6416033, 23.2628185, 2387, , , , , 
2392, 6600, "Sējas iela", , 56.9121059, 24.0654088, 2392, , , , , 
2393, 6600, "Sējas iela", , 56.9123317, 24.0660563, 2393, , , , , 
2416, 9507, "SIA Strāva", , 56.5291107, 27.6954570, 2416, , , , , 
2426, 2772, "Silabrieži", , 56.9149914, 24.3043311, 2426, , , , , 
2427, 2772, "Silabrieži", , 56.9148721, 24.3071683, 2427, , , , , 
2428, 6854, "Silamala", , 57.1064458, 27.1678464, 2428, , , , , 
2429, 1337, "Silava", , 56.8717774, 24.3530869, 2429, , , , , 
2430, 1337, "Silava", , 56.8722969, 24.3529244, 2430, , , , , 
2446, 4325, "Siljāņi", , 56.7583701, 25.6089000, 2446, , , , , 
2471, 573, "Skārduciems", , 56.9241227, 23.8558275, 2471, , , , , 
2479, 2571, "Skola", , 56.8264832, 24.2294322, 2479, , , , , 
2480, 2571, "Skola", , 56.8266293, 24.2296657, 2480, , , , , 
2486, 1906, "Skola", , 57.2185793, 27.3332859, 2486, , , , , 
2487, 1906, "Skola", , 57.2186073, 27.3331876, 2487, , , , , 
2490, 2906, "Valdemārpils Skola", , 57.3749307, 22.5945306, 2490, , , , , 
2491, 2906, "Valdemārpils Skola", , 57.3750142, 22.5940442, 2491, , , , , 
2513, 1953, "Skujupe", , 56.7412382, 24.1082529, 2513, , , , , 
2514, 1953, "Skujupe", , 56.7419005, 24.1083861, 2514, , , , , 
2525, 6650, "Slimnīca", , 57.1573152, 24.8446026, 2525, , , , , 
2527, 6652, "Ozolaine", , 57.5183880, 24.6854230, 2527, , , , , 
2537, 2445, "Smaidas", , 56.7204246, 24.2215911, 2537, , , , , 
2538, 2445, "Smaidas", , 56.7210176, 24.2205976, 2538, , , , , 
2562, 2346, "Spēlmaņi", , 56.8472444, 24.2496391, 2562, , , , , 
2563, 2346, "Spēlmaņi", , 56.8472508, 24.2480899, 2563, , , , , 
2566, 5200, "Spivakišķi", , 55.7734335, 26.5355082, 2566, , , , , 
2567, 5200, "Spivakišķi", , 55.7741762, 26.5350227, 2567, , , , , 
2587, 9362, "Kangaru stacija", , 56.9407983, 24.6138032, 2587, , , , , 
2594, 586, "Stacijas iela", , 57.2434617, 24.4019746, 2594, , , , , 
2595, 586, "Stacijas iela", , 57.2440905, 24.4028699, 2595, , , , , 
2596, 585, "Stacijas iela", , 57.0444652, 24.4140147, 2596, , , , , 
2597, 585, "Stacijas iela", , 57.0447570, 24.4152760, 2597, , , , , 
2598, 9433, "Stadions", , 57.7688298, 26.0115103, 2598, , , , , 
2622, 3761, "Stopiņi", , 56.8998724, 24.3647645, 2622, , , , , 
2623, 3761, "Stopiņi", , 56.9005671, 24.3652355, 2623, , , , , 
2647, 6686, "Strēlnieki", , 57.1169190, 24.3132428, 2647, , , , , 
2648, 6686, "Strēlnieki", , 57.1172276, 24.3148718, 2648, , , , , 
2658, 915, "Stūnīšu ezers", , 56.8689120, 24.0626257, 2658, , , , , 
2659, 915, "Stūnīšu ezers", , 56.8698311, 24.0631847, 2659, , , , , 
2660, 4859, "Stūri 1", , 56.6874770, 24.3164675, 2660, , , , , 
2661, 4859, "Stūri 1", , 56.6879955, 24.3170716, 2661, , , , , 
2674, 4353, "Sudrabi", , 57.3238208, 26.9436235, 2674, , , , , 
2675, 4353, "Sudrabi", , 57.3244206, 26.9457592, 2675, , , , , 
2677, 1427, "Sūkņu stacija", , 56.8835100, 24.1468489, 2677, , , , , 
2678, 1427, "Sūkņu stacija", , 56.8835385, 24.1474038, 2678, , , , , 
2692, 6694, "Mārupītes gatve", , 56.9004681, 24.0462325, 2692, , , , , 
2702, 6696, "Šokolāde", , 57.1445957, 24.8435790, 2702, , , , , 
2705, 3717, "Štrausi", , 56.9058049, 24.1462472, 2705, , , , , 
2706, 3717, "Štrausi", , 56.9069815, 24.1462715, 2706, , , , , 
2719, 3584, "Tautas nams", , 57.0815665, 24.8290408, 2719, , , , , 
2750, 9505, "Tirgus iela", , 56.5460911, 27.7260008, 2750, , , , , 
2761, 594, "Tuberkulozes slimnīca", , 56.9268854, 24.3702939, 2761, , , , , 
2762, 594, "Tuberkulozes slimnīca", , 56.9263386, 24.3705284, 2762, , , , , 
2767, 2058, "Turki", , 56.4483854, 26.2691606, 2767, , , , , 
2768, 2058, "Turki", , 56.4483685, 26.2688149, 2768, , , , , 
2773, 6715, "TV tornis", , 57.1640457, 24.8783058, 2773, , , , , 
2777, 1349, "Ukri", , 56.3435626, 23.0605253, 2777, , , , , 
2807, 1048, "Ustje", , 56.0745963, 27.5459633, 2807, , , , , 
2812, 6736, "Kalnciems", , 56.7996789, 23.6079245, 2812, , , , , 
2823, 6739, "V.Strūves iela", , 56.5005043, 25.8554837, 2823, , , , , 
2843, 3264, "Valdlauču centrs", , 56.9012444, 24.1466270, 2843, , , , , 
2844, 3264, "Valdlauču centrs", , 56.9025017, 24.1467609, 2844, , , , , 
2876, 4323, "Veckalni", , 56.7259401, 24.2055241, 2876, , , , , 
2877, 4323, "Veckalni", , 56.7260973, 24.2054775, 2877, , , , , 
2879, 5231, "Krapes muiža", , 56.7447988, 25.1008043, 2879, , , , , 
2888, 2854, "Vecsalaca", , 57.7542831, 24.4021562, 2888, , , , , 
2893, 5558, "Vecstrūžāni", , 56.7472025, 27.1876781, 2893, , , , , 
2910, 9522, "Vējkrogs", , 57.4116748, 25.2235343, 2910, , , , , 
2914, 5162, "Velnadobe", , 56.6097019, 25.0055025, 2914, , , , , 
2915, 5162, "Velnadobe", , 56.6099530, 25.0061371, 2915, , , , , 
2952, 1925, "Vidēji", , 56.8796714, 24.1675909, 2952, , , , , 
2953, 1925, "Vidēji", , 56.8797372, 24.1676973, 2953, , , , , 
2963, 9621, "Vidzemes šoseja", , 57.1527322, 24.8886439, 2963, , , , , 
2971, 6806, "Vīkuļi", , 56.9380628, 23.8634739, 2971, , , , , 
2989, 1113, "Vingri", , 56.2059050, 26.4640156, 2989, , , , , 
2990, 1113, "Vingri", , 56.2061544, 26.4634576, 2990, , , , , 
2991, 2513, "Vīnkalni", , 57.0771926, 23.2714196, 2991, , , , , 
2992, 2513, "Vīnkalni", , 57.0777836, 23.2704064, 2992, , , , , 
3054, 4696, "Zelči", , 56.9211706, 27.3604465, 3054, , , , , 
3055, 4696, "Zelči", , 56.9210831, 27.3603517, 3055, , , , , 
3060, 1439, "Zeltiņi", , 56.8837464, 24.3613906, 3060, , , , , 
3061, 1439, "Zeltiņi", , 56.8851186, 24.3614444, 3061, , , , , 
3109, 2325, "Zilupe", , 56.3903614, 28.1174077, 3109, , , , , 
3110, 2325, "Zilupe", , 56.3903775, 28.1174297, 3110, , , , , 
3129, 6876, "Zušu iela", , 57.1275768, 24.2881346, 3129, , , , , 
3130, 6876, "Zušu iela", , 57.1277726, 24.2874274, 3130, , , , , 
3142, 2939, "Zvirgzdi", , 56.4163779, 24.7864709, 3142, , , , , 
3143, 2939, "Zvirgzdi", , 56.4163986, 24.7865483, 3143, , , , , 
3157, 3, "Līgatne", , 57.1825175, 25.0341642, 3157, , , , , 
3158, 3, "Līgatne", , 57.1829090, 25.0353660, 3158, , , , , 
3159, 4, "Ķempju pagrieziens", , 57.1892682, 25.0649603, 3159, , , , , 
3160, 4, "Ķempju pagrieziens", , 57.1894203, 25.0661420, 3160, , , , , 
3161, 5, "Blodziņi", , 57.1967036, 25.1002136, 3161, , , , , 
3163, 5, "Blodziņi", , 57.1967812, 25.1009178, 3163, , , , , 
3164, 7, "Ieriķi", , 57.2074020, 25.1654191, 3164, , , , , 
3165, 7, "Ieriķi", , 57.2073669, 25.1661396, 3165, , , , , 
3169, 9, "Melturi", , 57.2208728, 25.2289935, 3169, , , , , 
3172, 11, "Drabeši", , 57.2384261, 25.2854680, 3172, , , , , 
3174, 11, "Drabeši", , 57.2384054, 25.2869301, 3174, , , , , 
3180, 13, "Vaive", , 57.2554448, 25.3702048, 3180, , , , , 
3181, 13, "Vaive", , 57.2553639, 25.3693221, 3181, , , , , 
3182, 14, "Rīdzene", , 57.2654742, 25.4258350, 3182, , , , , 
3183, 15, "Krūmiņi", , 57.2684170, 25.4635840, 3183, , , , , 
3184, 15, "Krūmiņi", , 57.2689270, 25.4619100, 3184, , , , , 
3185, 16, "Bērzkrogs", , 57.2802979, 25.4963786, 3185, , , , , 
3186, 16, "Bērzkrogs", , 57.2801060, 25.4949680, 3186, , , , , 
3187, 18, "Veselavas skola", , 57.2908122, 25.5465241, 3187, , , , , 
3188, 18, "Veselavas skola", , 57.2907981, 25.5453271, 3188, , , , , 
3190, 20, "Drūģi", , 57.3037091, 25.6077433, 3190, , , , , 
3191, 20, "Drūģi", , 57.3036269, 25.6067869, 3191, , , , , 
3192, 21, "Raunas pagrieziens", , 57.3075180, 25.6252630, 3192, , , , , 
3194, 23, "Ķieģeļceplis", , 57.3150740, 25.7327820, 3194, , , , , 
3197, 25, "Strautiņi", , 57.3325747, 24.9243531, 3197, , , , , 
3199, 26, "Straupe", , 57.3489684, 24.9485430, 3199, , , , , 
3200, 26, "Straupe", , 57.3487515, 24.9484550, 3200, , , , , 
3203, 28, "Plācis", , 57.3635477, 24.9800000, 3203, , , , , 
3204, 28, "Plācis", , 57.3638264, 24.9807105, 3204, , , , , 
3207, 30, "Stalbe", , 57.3747155, 25.0263004, 3207, , , , , 
3208, 30, "Stalbe", , 57.3750214, 25.0294511, 3208, , , , , 
3209, 32, "Kalnozoli", , 57.4175595, 25.1350718, 3209, , , , , 
3210, 32, "Kalnozoli", , 57.4188426, 25.1372957, 3210, , , , , 
3211, 33, "Peļņi", , 57.0367116, 25.0573022, 3211, , , , , 
3212, 33, "Peļņi", , 57.0370664, 25.0586285, 3212, , , , , 
3213, 34, "Dzintari", , 57.0465753, 25.0946869, 3213, , , , , 
3214, 34, "Dzintari", , 57.0464201, 25.0944365, 3214, , , , , 
3216, 35, "Salmiņi", , 57.0476034, 25.1132069, 3216, , , , , 
3217, 35, "Salmiņi", , 57.0472854, 25.1130404, 3217, , , , , 
3219, 9589, "Ķīvītes", , 57.0577577, 25.1361291, 3219, , , , , 
3221, 37, "Kalnāji", , 57.0594967, 25.1576940, 3221, , , , , 
3222, 37, "Kalnāji", , 57.0591628, 25.1591868, 3222, , , , , 
3223, 38, "Nītaure", , 57.0707481, 25.1928918, 3223, , , , , 
3224, 38, "Nītaure", , 57.0704368, 25.1928665, 3224, , , , , 
3229, 41, "Merķeļi", , 57.0646631, 25.2966545, 3229, , , , , 
3230, 41, "Merķeļi", , 57.0646870, 25.2982429, 3230, , , , , 
3233, 43, "Ģērķēni", , 57.0854411, 25.3875293, 3233, , , , , 
3234, 43, "Ģērķēni", , 57.0854397, 25.3871367, 3234, , , , , 
3235, 44, "Kosa", , 57.0874186, 25.4296568, 3235, , , , , 
3236, 44, "Kosa", , 57.0872605, 25.4290159, 3236, , , , , 
3237, 45, "Skujene", , 57.0926332, 25.4714700, 3237, , , , , 
3238, 45, "Skujene", , 57.0923951, 25.4708149, 3238, , , , , 
3243, 49, "Māļi", , 57.0890830, 25.6006766, 3243, , , , , 
3244, 49, "Māļi", , 57.0889585, 25.6013326, 3244, , , , , 
3245, 51, "Lībieši", , 57.0916702, 25.6672802, 3245, , , , , 
3246, 51, "Lībieši", , 57.0910694, 25.6678812, 3246, , , , , 
3250, 55, "Rucka", , 57.4204644, 24.9337700, 3250, , , , , 
3251, 55, "Rucka", , 57.4193200, 24.9360019, 3251, , , , , 
3252, 58, "Stalbe", , 57.3760168, 25.0276064, 3252, , , , , 
3253, 58, "Stalbe", , 57.3763890, 25.0271250, 3253, , , , , 
3256, 60, "Grantskalni", , 57.3644388, 25.0593336, 3256, , , , , 
3257, 60, "Grantskalni", , 57.3639143, 25.0597298, 3257, , , , , 
3260, 62, "Unguri", , 57.3529420, 25.0910098, 3260, , , , , 
3261, 62, "Unguri", , 57.3528774, 25.0913707, 3261, , , , , 
3262, 63, "Auziņas", , 57.3460322, 25.1148873, 3262, , , , , 
3263, 63, "Auziņas", , 57.3459752, 25.1149377, 3263, , , , , 
3266, 65, "Auciems", , 57.3353067, 25.1535709, 3266, , , , , 
3267, 65, "Auciems", , 57.3347163, 25.1543344, 3267, , , , , 
3270, 67, "Dimdas", , 57.3182590, 25.1985029, 3270, , , , , 
3271, 67, "Dimdas", , 57.3181651, 25.2004804, 3271, , , , , 
3272, 68, "Silmači", , 57.4419833, 25.4357780, 3272, , , , , 
3273, 68, "Silmači", , 57.4414716, 25.4361145, 3273, , , , , 
3274, 69, "Kainaži", , 57.4213186, 25.4367992, 3274, , , , , 
3275, 69, "Kainaži", , 57.4207466, 25.4362081, 3275, , , , , 
3278, 71, "Lode", , 57.3910697, 25.4181033, 3278, , , , , 
3279, 71, "Lode", , 57.3912282, 25.4179903, 3279, , , , , 
3282, 73, "Leokādijas", , 57.3655338, 25.3810963, 3282, , , , , 
3283, 73, "Leokādijas", , 57.3654251, 25.3808944, 3283, , , , , 
3286, 75, "Podragi", , 57.3428184, 25.3373961, 3286, , , , , 
3287, 75, "Podragi", , 57.3423398, 25.3371467, 3287, , , , , 
3288, 76, "Jaunkalni", , 57.3292181, 25.3135987, 3288, , , , , 
3289, 76, "Jaunkalni", , 57.3289992, 25.3128316, 3289, , , , , 
3292, 78, "Mūrnieki", , 57.2344221, 25.2533335, 3292, , , , , 
3293, 78, "Mūrnieki", , 57.2362728, 25.2539007, 3293, , , , , 
3295, 80, "Vaives dzirnavas", , 57.3308796, 25.3947850, 3295, , , , , 
3296, 80, "Vaives dzirnavas", , 57.3306324, 25.3956122, 3296, , , , , 
3299, 83, "Jaunrauna", , 57.3288104, 25.4693284, 3299, , , , , 
3300, 83, "Jaunrauna", , 57.3287184, 25.4704701, 3300, , , , , 
3305, 86, "Strīķeļi", , 57.3306777, 25.5510753, 3305, , , , , 
3306, 86, "Strīķeļi", , 57.3305294, 25.5513378, 3306, , , , , 
3309, 88, "Rauna", , 57.3318919, 25.6092815, 3309, , , , , 
3312, 90, "Raunas pagrieziens", , 57.3095062, 25.6272046, 3312, , , , , 
3313, 90, "Raunas pagrieziens", , 57.3085922, 25.6273643, 3313, , , , , 
3314, 91, "Kauliņi", , 57.3013227, 25.6686058, 3314, , , , , 
3315, 93, "Līdači", , 57.2776805, 25.7248384, 3315, , , , , 
3316, 94, "Miezīši", , 57.2573413, 25.7588933, 3316, , , , , 
3317, 96, "Skripsti", , 57.2448367, 25.8230503, 3317, , , , , 
3318, 97, "Drusti", , 57.2308416, 25.8565487, 3318, , , , , 
3319, 97, "Drusti", , 57.2307867, 25.8563114, 3319, , , , , 
3320, 98, "Gatarta", , 57.2159417, 25.8951531, 3320, , , , , 
3321, 98, "Gatarta", , 57.2154838, 25.8957154, 3321, , , , , 
3322, 101, "Jaundrusti", , 57.2105221, 25.9788945, 3322, , , , , 
3329, 107, "Priekuļi", , 57.3135184, 25.3579188, 3329, , , , , 
3330, 107, "Priekuļi", , 57.3137519, 25.3589824, 3330, , , , , 
3331, 108, "Ģūģeri", , 57.3038092, 25.4016439, 3331, , , , , 
3332, 108, "Ģūģeri", , 57.3033381, 25.4023911, 3332, , , , , 
3333, 109, "Pinderes", , 57.2995071, 25.4129167, 3333, , , , , 
3334, 109, "Pinderes", , 57.2991998, 25.4136446, 3334, , , , , 
3337, 111, "Veselava", , 57.2933892, 25.4799762, 3337, , , , , 
3338, 111, "Veselava", , 57.2927444, 25.4817641, 3338, , , , , 
3339, 112, "Bērzkrogs", , 57.2808714, 25.4950158, 3339, , , , , 
3340, 112, "Bērzkrogs", , 57.2794656, 25.4966497, 3340, , , , , 
3344, 116, "Dzērbenes pienotava", , 57.2240191, 25.5821721, 3344, , , , , 
3345, 116, "Dzērbenes pienotava", , 57.2237391, 25.5824858, 3345, , , , , 
3348, 118, "Bānūžu pagrieziens", , 57.1777901, 25.6218145, 3348, , , , , 
3349, 118, "Bānūžu pagrieziens", , 57.1761233, 25.6223154, 3349, , , , , 
3350, 119, "Taurene", , 57.1606135, 25.6647386, 3350, , , , , 
3351, 119, "Taurene", , 57.1606081, 25.6644901, 3351, , , , , 
3357, 124, "Silakrogs", , 57.0777071, 25.7631372, 3357, , , , , 
3358, 124, "Silakrogs", , 57.0775641, 25.7632559, 3358, , , , , 
3360, 126, "Vecpiebalgas vidusskola", , 57.0622466, 25.8102901, 3360, , , , , 
3361, 126, "Vecpiebalgas vidusskola", , 57.0623658, 25.8097211, 3361, , , , , 
3362, 127, "Vecpiebalga", , 57.0583421, 25.8225759, 3362, , , , , 
3363, 127, "Vecpiebalga", , 57.0583445, 25.8230104, 3363, , , , , 
3365, 140, "Pūres stacijas pagrieziens", , 57.0456661, 22.8892327, 3365, , , , , 
3366, 140, "Pūres stacijas pagrieziens", , 57.0466160, 22.8870557, 3366, , , , , 
3367, 143, "Līgatne", , 57.1820913, 25.0350961, 3367, , , , , 
3368, 143, "Līgatne", , 57.1824568, 25.0349835, 3368, , , , , 
3373, 146, "Ķigari", , 57.1393031, 25.0815934, 3373, , , , , 
3374, 146, "Ķigari", , 57.1392179, 25.0814938, 3374, , , , , 
3378, 148, "Eglaine", , 57.1057563, 25.1031421, 3378, , , , , 
3379, 148, "Eglaine", , 57.1050255, 25.1033332, 3379, , , , , 
3384, 154, "Slīpe", , 57.0455180, 25.2397298, 3384, , , , , 
3385, 154, "Slīpe", , 57.0448186, 25.2393639, 3385, , , , , 
3386, 155, "Inģistēni", , 57.0290243, 25.2466777, 3386, , , , , 
3387, 155, "Inģistēni", , 57.0289499, 25.2468731, 3387, , , , , 
3390, 157, "Zaube", , 56.9968724, 25.2608970, 3390, , , , , 
3391, 157, "Zaube", , 56.9961330, 25.2610434, 3391, , , , , 
3392, 158, "Pīvas", , 56.9754776, 25.2249872, 3392, , , , , 
3394, 159, "Bērzs", , 56.9576563, 25.2034612, 3394, , , , , 
3395, 159, "Bērzs", , 56.9572329, 25.2015093, 3395, , , , , 
3396, 160, "Cirsti", , 56.9812785, 25.7784093, 3396, , , , , 
3397, 161, "Sāvas", , 57.0081204, 25.7900958, 3397, , , , , 
3398, 163, "Ineši", , 57.0206881, 25.8311112, 3398, , , , , 
3399, 163, "Ineši", , 57.0213599, 25.8306247, 3399, , , , , 
3400, 166, "Veļķi", , 57.0831338, 25.8790860, 3400, , , , , 
3401, 166, "Veļķi", , 57.0832146, 25.8805291, 3401, , , , , 
3404, 168, "Emīla Dārziņa muzejs", , 57.1068464, 25.9254243, 3404, , , , , 
3405, 168, "Emīla Dārziņa muzejs", , 57.1066538, 25.9254469, 3405, , , , , 
3406, 169, "Zariņi", , 57.1207292, 25.9438513, 3406, , , , , 
3407, 169, "Zariņi", , 57.1211276, 25.9451939, 3407, , , , , 
3410, 171, "Abrupe", , 57.1440767, 25.9866460, 3410, , , , , 
3411, 171, "Abrupe", , 57.1442030, 25.9876187, 3411, , , , , 
3414, 173, "Jaunpiebalgas vidusskola", , 57.1670479, 26.0166444, 3414, , , , , 
3415, 173, "Jaunpiebalgas vidusskola", , 57.1675112, 26.0170751, 3415, , , , , 
3416, 175, "Jaunpiebalga", , 57.1799816, 26.0545392, 3416, , , , , 
3417, 175, "Jaunpiebalga", , 57.1798832, 26.0546578, 3417, , , , , 
3418, 176, "Rudgalvji", , 57.1954379, 26.0885258, 3418, , , , , 
3419, 176, "Rudgalvji", , 57.1955947, 26.0903136, 3419, , , , , 
3420, 177, "More", , 57.0820201, 25.0837120, 3420, , , , , 
3421, 178, "Vīciepi", , 57.0822680, 25.1437857, 3421, , , , , 
3422, 178, "Vīciepi", , 57.0829086, 25.1417912, 3422, , , , , 
3423, 184, "Auškāpi", , 57.3533820, 25.6712773, 3423, , , , , 
3424, 184, "Auškāpi", , 57.3530668, 25.6697432, 3424, , , , , 
3425, 185, "Bormaņi", , 57.3395560, 25.6377559, 3425, , , , , 
3426, 185, "Bormaņi", , 57.3397043, 25.6376453, 3426, , , , , 
3429, 210, "Raiskums", , 57.3118629, 25.1594396, 3429, , , , , 
3430, 210, "Raiskums", , 57.3115478, 25.1593121, 3430, , , , , 
3433, 212, "Auciems", , 57.3354747, 25.1409656, 3433, , , , , 
3434, 212, "Auciems", , 57.3356838, 25.1411759, 3434, , , , , 
3435, 243, "Dzērbene", , 57.1912964, 25.6762315, 3435, , , , , 
3437, 256, "Auļukalns", , 57.2311329, 25.7857216, 3437, , , , , 
3438, 256, "Auļukalns", , 57.2311220, 25.7855280, 3438, , , , , 
3440, 258, "Dzērbenes stacija", , 57.2114465, 25.7049280, 3440, , , , , 
3441, 258, "Dzērbenes stacija", , 57.2110210, 25.7041336, 3441, , , , , 
3443, 275, "Kaive", , 57.0526783, 25.6276841, 3443, , , , , 
3444, 277, "Vecskujene", , 57.0750206, 25.5739885, 3444, , , , , 
3445, 277, "Vecskujene", , 57.0752205, 25.5739152, 3445, , , , , 
3446, 278, "Dendroloģiskais parks", , 56.6177737, 25.0530659, 3446, , , , , 
3447, 278, "Dendroloģiskais parks", , 56.6177209, 25.0540458, 3447, , , , , 
3449, 304, "Eglaine", , 57.1036309, 25.0996621, 3449, , , , , 
3450, 305, "Leokādijas", , 57.3649093, 25.3816281, 3450, , , , , 
3451, 305, "Leokādijas", , 57.3651395, 25.3816744, 3451, , , , , 
3454, 307, "Liepa", , 57.3813166, 25.4288756, 3454, , , , , 
3455, 307, "Liepa", , 57.3810888, 25.4289446, 3455, , , , , 
3459, 309, "Veidenbauma muzejs", , 57.3987454, 25.4754682, 3459, , , , , 
3462, 311, "Starti", , 57.4020221, 25.5095337, 3462, , , , , 
3463, 311, "Starti", , 57.4023058, 25.5108430, 3463, , , , , 
3468, 313, "Auniņi", , 57.4156590, 25.5434703, 3468, , , , , 
3469, 313, "Auniņi", , 57.4158806, 25.5446041, 3469, , , , , 
3474, 316, "Mārsnēni", , 57.4216912, 25.5800670, 3474, , , , , 
3476, 318, "Lāčplēši", , 57.4317708, 25.6207282, 3476, , , , , 
3477, 318, "Lāčplēši", , 57.4315447, 25.6226050, 3477, , , , , 
3478, 319, "Lisa", , 57.4255511, 25.6560595, 3478, , , , , 
3479, 319, "Lisa", , 57.4254273, 25.6561934, 3479, , , , , 
3482, 325, "Raulica", , 57.4204020, 24.8034013, 3482, , , , , 
3483, 325, "Raulica", , 57.4203770, 24.8034604, 3483, , , , , 
3484, 326, "Rātes", , 57.4056013, 24.8505080, 3484, , , , , 
3485, 326, "Rātes", , 57.4056527, 24.8502580, 3485, , , , , 
3486, 327, "Straumēni", , 57.3922429, 24.8776101, 3486, , , , , 
3487, 327, "Straumēni", , 57.3922307, 24.8775246, 3487, , , , , 
3488, 328, "Mazstraupe", , 57.3723942, 24.9012648, 3488, , , , , 
3489, 328, "Mazstraupe", , 57.3724479, 24.9009719, 3489, , , , , 
3490, 330, "Straupes skola", , 57.3550562, 24.9508951, 3490, , , , , 
3491, 330, "Straupes skola", , 57.3549042, 24.9517456, 3491, , , , , 
3492, 334, "Fizikas institūts", , 56.8670388, 24.3977710, 3492, , , , , 
3493, 338, "Drabeši", , 57.2423286, 25.2827447, 3493, , , , , 
3494, 338, "Drabeši", , 57.2424355, 25.2824071, 3494, , , , , 
3495, 339, "Āraiši", , 57.2536976, 25.2778479, 3495, , , , , 
3496, 339, "Āraiši", , 57.2540693, 25.2777004, 3496, , , , , 
3499, 341, "Līvi", , 57.2876113, 25.2659102, 3499, , , , , 
3500, 341, "Līvi", , 57.2886363, 25.2666959, 3500, , , , , 
3501, 342, "Dalbe", , 56.7411009, 23.8773266, 3501, , , , , 
3502, 342, "Dalbe", , 56.7411986, 23.8770824, 3502, , , , , 
3505, 345, "Dimzas", , 56.5911157, 23.7179902, 3505, , , , , 
3506, 345, "Dimzas", , 56.5892032, 23.7173992, 3506, , , , , 
3510, 347, "Lapu krogs", , 56.5714117, 23.7139533, 3510, , , , , 
3511, 347, "Lapu krogs", , 56.5698937, 23.7134181, 3511, , , , , 
3516, 350, "Pēterlauki", , 56.5412595, 23.7079958, 3516, , , , , 
3518, 351, "Platone", , 56.5303351, 23.7058850, 3518, , , , , 
3519, 351, "Platone", , 56.5292785, 23.7053615, 3519, , , , , 
3522, 353, "Smedēni", , 56.5067655, 23.7013137, 3522, , , , , 
3523, 353, "Smedēni", , 56.5057057, 23.7007751, 3523, , , , , 
3524, 354, "Zvaigznītes", , 56.4815585, 23.6963721, 3524, , , , , 
3525, 354, "Zvaigznītes", , 56.4824597, 23.6962820, 3525, , , , , 
3526, 355, "Brieži", , 56.4650106, 23.6931460, 3526, , , , , 
3528, 356, "Mazeleja", , 56.4503995, 23.6903298, 3528, , , , , 
3529, 356, "Mazeleja", , 56.4508854, 23.6901867, 3529, , , , , 
3530, 357, "Jetes", , 56.4393854, 23.6881131, 3530, , , , , 
3534, 359, "Eleja", , 56.4172696, 23.6839522, 3534, , , , , 
3536, 363, "Ložmetējkalns", , 56.8730520, 23.6258003, 3536, , , , , 
3537, 363, "Ložmetējkalns", , 56.8729396, 23.6258738, 3537, , , , , 
3540, 365, "Mitenieki", , 56.8513690, 23.6006290, 3540, , , , , 
3541, 365, "Mitenieki", , 56.8521813, 23.6017293, 3541, , , , , 
3542, 366, "Pagrieziens uz Kalnciemu", , 56.8322600, 23.5568010, 3542, , , , , 
3545, 372, "Ānes pagrieziens", , 56.6501020, 23.8174540, 3545, , , , , 
3546, 372, "Ānes pagrieziens", , 56.6498964, 23.8174749, 3546, , , , , 
3550, 375, "Tetele", , 56.6404225, 23.8536538, 3550, , , , , 
3551, 375, "Tetele", , 56.6403941, 23.8535926, 3551, , , , , 
3554, 378, "Vēsmas", , 56.6275923, 23.8975956, 3554, , , , , 
3555, 378, "Vēsmas", , 56.6267709, 23.8989901, 3555, , , , , 
3556, 379, "Garoza", , 56.6284218, 23.9344533, 3556, , , , , 
3557, 379, "Garoza", , 56.6279809, 23.9361502, 3557, , , , , 
3560, 382, "Jaunbērziņi", , 56.6253599, 23.9968378, 3560, , , , , 
3561, 382, "Jaunbērziņi", , 56.6248989, 23.9993596, 3561, , , , , 
3562, 384, "Mežciems", , 56.6208155, 23.7707748, 3562, , , , , 
3563, 384, "Mežciems", , 56.6203888, 23.7710285, 3563, , , , , 
3567, 386, "Blukas", , 56.6110034, 23.7881730, 3567, , , , , 
3568, 388, "Bērzi", , 56.5919603, 23.8068100, 3568, , , , , 
3569, 388, "Bērzi", , 56.5931714, 23.8048976, 3569, , , , , 
3571, 389, "Šalkas", , 56.5859425, 23.8162637, 3571, , , , , 
3573, 390, "Gulbji", , 56.5767068, 23.8278584, 3573, , , , , 
3574, 391, "Mazlauku pagrieziens", , 56.5718355, 23.8476951, 3574, , , , , 
3575, 391, "Mazlauku pagrieziens", , 56.5713055, 23.8481322, 3575, , , , , 
3577, 392, "Skangali", , 56.5678882, 23.8574410, 3577, , , , , 
3578, 393, "Ošas", , 56.5654271, 23.8655742, 3578, , , , , 
3582, 395, "Pauļuki", , 56.5685770, 23.9112306, 3582, , , , , 
3583, 395, "Pauļuki", , 56.5686272, 23.9119245, 3583, , , , , 
3588, 398, "Staļģene", , 56.5710102, 23.9562356, 3588, , , , , 
3589, 399, "Staļģenes tilts", , 56.5737626, 23.9750161, 3589, , , , , 
3590, 399, "Staļģenes tilts", , 56.5734116, 23.9750615, 3590, , , , , 
3593, 401, "Emburga", , 56.5598074, 23.9818868, 3593, , , , , 
3594, 401, "Emburga", , 56.5593245, 23.9819370, 3594, , , , , 
3595, 402, "Mucenieki", , 56.5480192, 23.9878057, 3595, , , , , 
3596, 402, "Mucenieki", , 56.5481962, 23.9875767, 3596, , , , , 
3597, 403, "Ceļmalnieki", , 56.5378243, 23.9963674, 3597, , , , , 
3598, 403, "Ceļmalnieki", , 56.5378604, 23.9962766, 3598, , , , , 
3599, 404, "Diduļi", , 56.5280055, 24.0131320, 3599, , , , , 
3600, 404, "Diduļi", , 56.5275911, 24.0133597, 3600, , , , , 
3601, 405, "Beikas", , 56.5162473, 24.0253128, 3601, , , , , 
3602, 405, "Beikas", , 56.5162342, 24.0251525, 3602, , , , , 
3605, 408, "Skolas iela", , 56.5938293, 23.6719744, 3605, , , , , 
3606, 408, "Skolas iela", , 56.5934058, 23.6710355, 3606, , , , , 
3609, 410, "Svēte", , 56.5905746, 23.6511166, 3609, , , , , 
3611, 410, "Svēte", , 56.5907683, 23.6505832, 3611, , , , , 
3613, 411, "Bramberģes pagrieziens", , 56.5805233, 23.6213503, 3613, , , , , 
3614, 411, "Bramberģes pagrieziens", , 56.5809426, 23.6217247, 3614, , , , , 
3617, 413, "Lubēni", , 56.5657600, 23.5968492, 3617, , , , , 
3618, 413, "Lubēni", , 56.5650542, 23.5959479, 3618, , , , , 
3619, 414, "Kaijas", , 56.5611604, 23.5923285, 3619, , , , , 
3620, 414, "Kaijas", , 56.5599552, 23.5902027, 3620, , , , , 
3621, 415, "Aspazijas Daukšas", , 56.5553300, 23.5806504, 3621, , , , , 
3622, 415, "Aspazijas Daukšas", , 56.5548406, 23.5792993, 3622, , , , , 
3625, 417, "Lejiņas", , 56.5400747, 23.5398125, 3625, , , , , 
3626, 417, "Lejiņas", , 56.5397907, 23.5384046, 3626, , , , , 
3629, 420, "Geriņi", , 56.5088016, 23.4684239, 3629, , , , , 
3630, 420, "Geriņi", , 56.5083973, 23.4674626, 3630, , , , , 
3631, 421, "Pūteļi", , 56.4937706, 23.4415608, 3631, , , , , 
3632, 421, "Pūteļi", , 56.4924184, 23.4399483, 3632, , , , , 
3636, 424, "Glūda", , 56.5992420, 23.4900053, 3636, , , , , 
3637, 424, "Glūda", , 56.5990494, 23.4885047, 3637, , , , , 
3638, 425, "Tušķi", , 56.6512544, 23.6302633, 3638, , , , , 
3639, 425, "Tušķi", , 56.6514719, 23.6308972, 3639, , , , , 
3644, 429, "Auces pagrieziens", , 56.6237135, 23.5452906, 3644, , , , , 
3645, 429, "Auces pagrieziens", , 56.6243984, 23.5471954, 3645, , , , , 
3648, 431, "Alkšņi", , 56.6223826, 23.5098856, 3648, , , , , 
3649, 431, "Alkšņi", , 56.6223616, 23.5106905, 3649, , , , , 
3650, 432, "Tušķi", , 56.6521013, 23.6310868, 3650, , , , , 
3653, 434, "Priednieki", , 56.6607293, 23.5706952, 3653, , , , , 
3654, 434, "Priednieki", , 56.6610763, 23.5697124, 3654, , , , , 
3655, 435, "Brakšķu stacija", , 56.6709998, 23.5401795, 3655, , , , , 
3656, 435, "Brakšķu stacija", , 56.6713927, 23.5393038, 3656, , , , , 
3661, 438, "Līvbērze", , 56.6898534, 23.4945664, 3661, , , , , 
3663, 438, "Līvbērze", , 56.6902034, 23.4942489, 3663, , , , , 
3669, 444, "Zvejnieki", , 56.7098642, 23.6852768, 3669, , , , , 
3670, 444, "Zvejnieki", , 56.7103383, 23.6853150, 3670, , , , , 
3675, 447, "Induļi", , 56.7467158, 23.6691226, 3675, , , , , 
3676, 447, "Induļi", , 56.7472494, 23.6687712, 3676, , , , , 
3681, 450, "Strautnieki", , 56.7742491, 23.6484188, 3681, , , , , 
3682, 450, "Strautnieki", , 56.7757612, 23.6480752, 3682, , , , , 
3688, 453, "Kalnciema skola", , 56.8078581, 23.6251796, 3688, , , , , 
3691, 454, "Indras", , 56.8232904, 23.6099331, 3691, , , , , 
3699, 459, "Ozolnieki", , 56.6899193, 23.7941601, 3699, , , , , 
3700, 459, "Ozolnieki", , 56.6895544, 23.7938388, 3700, , , , , 
3701, 461, "Dzidras", , 56.7157451, 23.8359446, 3701, , , , , 
3702, 461, "Dzidras", , 56.7150224, 23.8351188, 3702, , , , , 
3703, 464, "Sīļi", , 56.4476571, 23.4482728, 3703, , , , , 
3704, 464, "Sīļi", , 56.4474756, 23.4492398, 3704, , , , , 
3705, 465, "Ziedkalne", , 56.4419590, 23.4808280, 3705, , , , , 
3706, 465, "Ziedkalne", , 56.4416920, 23.4814800, 3706, , , , , 
3707, 466, "Cielaviņas", , 56.4383552, 23.5023980, 3707, , , , , 
3708, 466, "Cielaviņas", , 56.4381002, 23.5033655, 3708, , , , , 
3709, 467, "Mūra dzirnavas", , 56.4352788, 23.5206372, 3709, , , , , 
3710, 467, "Mūra dzirnavas", , 56.4354897, 23.5197847, 3710, , , , , 
3711, 468, "Zvirgzdiņi", , 56.4298510, 23.5401810, 3711, , , , , 
3712, 468, "Zvirgzdiņi", , 56.4292180, 23.5406330, 3712, , , , , 
3713, 469, "Vilces pasts", , 56.4219620, 23.5484835, 3713, , , , , 
3714, 469, "Vilces pasts", , 56.4225582, 23.5464017, 3714, , , , , 
3715, 470, "Vilces pienotava", , 56.4185496, 23.5658996, 3715, , , , , 
3716, 470, "Vilces pienotava", , 56.4185075, 23.5649941, 3716, , , , , 
3717, 471, "Snāveļi", , 56.4178508, 23.5918601, 3717, , , , , 
3718, 471, "Snāveļi", , 56.4176858, 23.5924238, 3718, , , , , 
3719, 472, "Tīsi", , 56.4161621, 23.6209354, 3719, , , , , 
3720, 472, "Tīsi", , 56.4160400, 23.6229530, 3720, , , , , 
3721, 473, "Sila krogs", , 56.4171253, 23.6572687, 3721, , , , , 
3722, 473, "Sila krogs", , 56.4169353, 23.6602673, 3722, , , , , 
3723, 474, "Eleja", , 56.4160357, 23.6827876, 3723, , , , , 
3724, 474, "Eleja", , 56.4155377, 23.6844426, 3724, , , , , 
3725, 475, "Parka iela", , 56.4152983, 23.6959745, 3725, , , , , 
3726, 475, "Parka iela", , 56.4152473, 23.6979685, 3726, , , , , 
3727, 476, "Sesavas baznīca", , 56.4202382, 23.7300755, 3727, , , , , 
3728, 476, "Sesavas baznīca", , 56.4200871, 23.7326988, 3728, , , , , 
3729, 478, "Skursteņi", , 56.4195268, 23.7702372, 3729, , , , , 
3730, 478, "Skursteņi", , 56.4193143, 23.7724741, 3730, , , , , 
3731, 479, "Žubes", , 56.4203767, 23.7973391, 3731, , , , , 
3732, 479, "Žubes", , 56.4203269, 23.7976566, 3732, , , , , 
3733, 480, "Sesava", , 56.4219499, 23.8183119, 3733, , , , , 
3734, 480, "Sesava", , 56.4219848, 23.8202038, 3734, , , , , 
3735, 481, "Mālu krogs", , 56.4236901, 23.8498289, 3735, , , , , 
3736, 481, "Mālu krogs", , 56.4237004, 23.8500201, 3736, , , , , 
3737, 482, "Dzirnieki", , 56.5626632, 23.8727163, 3737, , , , , 
3738, 482, "Dzirnieki", , 56.5624292, 23.8731153, 3738, , , , , 
3741, 483, "Šķilvji", , 56.5498160, 23.9020150, 3741, , , , , 
3742, 484, "Bodnieki", , 56.5348237, 23.9149268, 3742, , , , , 
3743, 484, "Bodnieki", , 56.5337108, 23.9142828, 3743, , , , , 
3746, 486, "Jaunsvirlauka", , 56.5025442, 23.9270852, 3746, , , , , 
3747, 486, "Jaunsvirlauka", , 56.5018575, 23.9281470, 3747, , , , , 
3750, 490, "Salgale", , 56.5537981, 24.0508294, 3750, , , , , 
3751, 490, "Salgale", , 56.5542004, 24.0540211, 3751, , , , , 
3752, 491, "Smedēni", , 56.5065640, 24.0152684, 3752, , , , , 
3753, 494, "Stūrīši", , 56.5095887, 23.9608579, 3753, , , , , 
3755, 497, "Poķi", , 56.5670258, 23.7541409, 3755, , , , , 
3756, 497, "Poķi", , 56.5662215, 23.7555814, 3756, , , , , 
3757, 498, "Vircava", , 56.5588450, 23.7728776, 3757, , , , , 
3758, 498, "Vircava", , 56.5584508, 23.7732425, 3758, , , , , 
3759, 501, "Ratenieki", , 56.5268619, 23.8108943, 3759, , , , , 
3760, 501, "Ratenieki", , 56.5275405, 23.8100632, 3760, , , , , 
3761, 503, "Oglaines pagrieziens", , 56.5092400, 23.8336738, 3761, , , , , 
3762, 503, "Oglaines pagrieziens", , 56.5092647, 23.8336738, 3762, , , , , 
3763, 504, "Dobuļi", , 56.5031500, 23.8430089, 3763, , , , , 
3764, 504, "Dobuļi", , 56.5031280, 23.8430089, 3764, , , , , 
3766, 508, "Kalnrozes", , 56.3736973, 23.5463605, 3766, , , , , 
3767, 509, "Svētes skola", , 56.5910952, 23.6780166, 3767, , , , , 
3768, 509, "Svētes skola", , 56.5901983, 23.6769304, 3768, , , , , 
3769, 511, "Vītiņi", , 56.5691899, 23.6622063, 3769, , , , , 
3770, 511, "Vītiņi", , 56.5685110, 23.6620064, 3770, , , , , 
3771, 514, "Kalnanši", , 56.5452941, 23.6231111, 3771, , , , , 
3772, 514, "Kalnanši", , 56.5449687, 23.6219555, 3772, , , , , 
3773, 515, "Āboliņi", , 56.5312148, 23.6065066, 3773, , , , , 
3774, 515, "Āboliņi", , 56.5302246, 23.6054817, 3774, , , , , 
3775, 517, "Lipsti", , 56.5118870, 23.5957888, 3775, , , , , 
3776, 520, "Lielplatones pagasta padome", , 56.4292412, 23.6341806, 3776, , , , , 
3777, 520, "Lielplatones pagasta padome", , 56.4293580, 23.6340738, 3777, , , , , 
3780, 523, "Dorupes stacija", , 56.6070730, 23.5311172, 3780, , , , , 
3781, 523, "Dorupes stacija", , 56.6064893, 23.5311573, 3781, , , , , 
3782, 525, "Glūdas skola", , 56.5927353, 23.5367284, 3782, , , , , 
3783, 525, "Glūdas skola", , 56.5917833, 23.5370576, 3783, , , , , 
3784, 526, "Zemgale", , 56.5852792, 23.5561802, 3784, , , , , 
3785, 526, "Zemgale", , 56.5852850, 23.5562690, 3785, , , , , 
3786, 527, "Bramberģe", , 56.5792893, 23.5882830, 3786, , , , , 
3787, 535, "Vāverīte", , 56.6274700, 23.8075092, 3787, , , , , 
3788, 537, "Stūri", , 56.6278576, 23.8394641, 3788, , , , , 
3789, 538, "Kauguri 2", , 56.9631206, 23.6032033, 3789, , , , , 
3790, 540, "Dainas", , 56.6069394, 23.8974747, 3790, , , , , 
3791, 542, "Graudnieki", , 56.5917161, 23.9337071, 3791, , , , , 
3792, 547, "Veiži", , 56.5360542, 23.9575994, 3792, , , , , 
3793, 547, "Veiži", , 56.5356573, 23.9572732, 3793, , , , , 
3794, 549, "Stūrīši", , 56.5113341, 23.9600701, 3794, , , , , 
3795, 549, "Stūrīši", , 56.5109329, 23.9601031, 3795, , , , , 
3796, 553, "Lielvircavas skola", , 56.5196545, 23.7495976, 3796, , , , , 
3797, 553, "Lielvircavas skola", , 56.5194782, 23.7495387, 3797, , , , , 
3798, 555, "Raiņi", , 56.5094551, 23.7590239, 3798, , , , , 
3799, 556, "Vidzemnieki", , 56.4996044, 23.7706469, 3799, , , , , 
3800, 556, "Vidzemnieki", , 56.4990663, 23.7710029, 3800, , , , , 
3801, 558, "Staltie", , 56.4742086, 23.7886138, 3801, , , , , 
3802, 558, "Staltie", , 56.4744840, 23.7882966, 3802, , , , , 
3803, 560, "Strautnieki", , 56.4504562, 23.8141644, 3803, , , , , 
3804, 560, "Strautnieki", , 56.4501345, 23.8142171, 3804, , , , , 
3805, 562, "Sesavas skola", , 56.4254975, 23.8186635, 3805, , , , , 
3806, 563, "Sesava", , 56.4215682, 23.8197126, 3806, , , , , 
3807, 567, "Buķi", , 56.3797942, 23.8143520, 3807, , , , , 
3809, 567, "Buķi", , 56.3790341, 23.8140169, 3809, , , , , 
3810, 569, "Lielsesava", , 56.3590284, 23.8139127, 3810, , , , , 
3811, 571, "Renceles", , 56.5269100, 24.0360662, 3811, , , , , 
3812, 572, "Mazlauki", , 56.5222676, 23.8506172, 3812, , , , , 
3813, 572, "Mazlauki", , 56.5213072, 23.8504363, 3813, , , , , 
3814, 575, "Sūkņu stacija", , 56.8107593, 23.5788226, 3814, , , , , 
3815, 575, "Sūkņu stacija", , 56.8106782, 23.5789395, 3815, , , , , 
3816, 576, "Bērzes iela", , 56.8059905, 23.5893882, 3816, , , , , 
3817, 576, "Bērzes iela", , 56.8062554, 23.5886448, 3817, , , , , 
3820, 578, "Purmaļi", , 56.7979982, 23.6133800, 3820, , , , , 
3821, 578, "Purmaļi", , 56.7986250, 23.6119628, 3821, , , , , 
3822, 579, "Standarts", , 56.7907210, 23.6273546, 3822, , , , , 
3823, 579, "Standarts", , 56.7900801, 23.6273458, 3823, , , , , 
3824, 582, "Plāņi", , 56.6116345, 23.9409718, 3824, , , , , 
3825, 582, "Plāņi", , 56.6108504, 23.9411913, 3825, , , , , 
3826, 583, "Auči", , 56.5957757, 23.9569035, 3826, , , , , 
3827, 583, "Auči", , 56.5949930, 23.9574984, 3827, , , , , 
3828, 587, "Tērvetes sociālās aprūpes centrs", , 56.4753182, 23.3234790, 3828, , , , , 
3829, 587, "Tērvetes sociālās aprūpes centrs", , 56.4753389, 23.3231637, 3829, , , , , 
3830, 588, "Skabargas", , 56.5085578, 23.5371812, 3830, , , , , 
3831, 591, "Sakas pagasta padome", , 56.8628797, 21.2235097, 3831, , , , , 
3832, 591, "Sakas pagasta padome", , 56.8627757, 21.2228866, 3832, , , , , 
3833, 592, "Draudzība", , 56.5902592, 21.6588769, 3833, , , , , 
3835, 592, "Draudzība", , 56.5907528, 21.6577217, 3835, , , , , 
3836, 593, "Pansionāts", , 56.6210979, 25.0674976, 3836, , , , , 
3837, 593, "Pansionāts", , 56.6212512, 25.0681278, 3837, , , , , 
3838, 596, "Ilmāja", , 56.5899063, 21.5788323, 3838, , , , , 
3840, 596, "Ilmāja", , 56.5900918, 21.5765525, 3840, , , , , 
3843, 598, "Kaķenieki", , 56.6648978, 23.0395883, 3843, , , , , 
3844, 598, "Kaķenieki", , 56.6650076, 23.0389471, 3844, , , , , 
3851, 602, "Ozoli", , 56.5903000, 21.4875203, 3851, , , , , 
3852, 602, "Ozoli", , 56.5907932, 21.4863551, 3852, , , , , 
3853, 603, "Lišķi", , 56.5884112, 21.4393802, 3853, , , , , 
3854, 603, "Lišķi", , 56.5883373, 21.4371769, 3854, , , , , 
3855, 604, "Durbe", , 56.5915270, 21.3756132, 3855, , , , , 
3856, 604, "Durbe", , 56.5917482, 21.3737142, 3856, , , , , 
3857, 605, "Lieģi", , 56.5826373, 21.3366417, 3857, , , , , 
3858, 605, "Lieģi", , 56.5827963, 21.3346985, 3858, , , , , 
3859, 606, "Kalēji", , 56.5775387, 21.3056034, 3859, , , , , 
3860, 606, "Kalēji", , 56.5772970, 21.3035792, 3860, , , , , 
3863, 608, "Šukteri", , 56.5574032, 21.2606741, 3863, , , , , 
3864, 608, "Šukteri", , 56.5582156, 21.2610053, 3864, , , , , 
3865, 609, "Rolava", , 56.5543867, 21.2422217, 3865, , , , , 
3866, 609, "Rolava", , 56.5545923, 21.2418798, 3866, , , , , 
3869, 612, "Grobiņa", , 56.5398708, 21.1699624, 3869, , , , , 
3870, 612, "Grobiņa", , 56.5404129, 21.1682227, 3870, , , , , 
3877, 616, "Dienvidu robeža", , 56.4767790, 21.0086120, 3877, , , , , 
3878, 618, "Grīnvalti", , 56.4595535, 21.0129680, 3878, , , , , 
3879, 619, "Kontrolpunkts", , 56.4535154, 21.0108939, 3879, , , , , 
3880, 620, "Žvaģiņi", , 56.4386064, 21.0063189, 3880, , , , , 
3881, 621, "Pērkone", , 56.4264227, 21.0074050, 3881, , , , , 
3882, 622, "Reiņi", , 56.4172989, 21.0047291, 3882, , , , , 
3883, 623, "Balceri", , 56.4061877, 21.0039493, 3883, , , , , 
3884, 624, "Skatre", , 56.3914996, 21.0028996, 3884, , , , , 
3885, 625, "Bernāti", , 56.3739180, 20.9980769, 3885, , , , , 
3886, 626, "Rolavi", , 56.3654066, 21.0028043, 3886, , , , , 
3887, 627, "Jūrmalciema pagrieziens", , 56.3592352, 21.0118243, 3887, , , , , 
3888, 628, "Tosele", , 56.3516999, 21.0376980, 3888, , , , , 
3889, 630, "Nīca", , 56.3261080, 21.0889045, 3889, , , , , 
3890, 631, "Silaine", , 56.3325923, 21.0767797, 3890, , , , , 
3891, 636, "Kalnišķi", , 56.2321430, 21.1094013, 3891, , , , , 
3892, 637, "Peši", , 56.2116386, 21.1338365, 3892, , , , , 
3893, 640, "Pagrabi", , 56.1337827, 21.1508226, 3893, , , , , 
3894, 641, "Balčēni", , 56.1222875, 21.1454453, 3894, , , , , 
3895, 642, "Ģeistauti", , 56.1070136, 21.1376168, 3895, , , , , 
3898, 645, "Ceļmalas", , 56.4834272, 21.8953589, 3898, , , , , 
3899, 645, "Ceļmalas", , 56.4835126, 21.8952020, 3899, , , , , 
3902, 654, "Kaņepji", , 56.4752893, 21.5096271, 3902, , , , , 
3903, 654, "Kaņepji", , 56.4756357, 21.5083060, 3903, , , , , 
3904, 655, "Stūri", , 56.4782668, 21.4463278, 3904, , , , , 
3905, 655, "Stūri", , 56.4783708, 21.4460923, 3905, , , , , 
3906, 656, "Vētras", , 56.4803739, 21.4220406, 3906, , , , , 
3907, 656, "Vētras", , 56.4809761, 21.4200889, 3907, , , , , 
3908, 657, "Virga", , 56.4841640, 21.4083298, 3908, , , , , 
3909, 657, "Virga", , 56.4843645, 21.4081606, 3909, , , , , 
3910, 658, "Māķi", , 56.4967282, 21.3661326, 3910, , , , , 
3911, 658, "Māķi", , 56.4969692, 21.3652523, 3911, , , , , 
3916, 661, "Gavieze", , 56.5075097, 21.2862068, 3916, , , , , 
3917, 661, "Gavieze", , 56.5077774, 21.2857119, 3917, , , , , 
3928, 666, "Strante", , 56.9137657, 21.2427196, 3928, , , , , 
3929, 666, "Strante", , 56.9134917, 21.2415901, 3929, , , , , 
3932, 668, "Borovka", , 55.9165524, 26.9871072, 3932, , , , , 
3933, 668, "Borovka", , 55.9163756, 26.9872121, 3933, , , , , 
3934, 669, "Mostene", , 57.2011943, 26.0115256, 3934, , , , , 
3935, 670, "Ulmale", , 56.9367744, 21.2769769, 3935, , , , , 
3936, 670, "Ulmale", , 56.9362783, 21.2762085, 3936, , , , , 
3942, 674, "Darbnīcas", , 56.8684528, 21.2255870, 3942, , , , , 
3943, 674, "Darbnīcas", , 56.8668743, 21.2252329, 3943, , , , , 
3944, 675, "Biksti", , 56.6637095, 22.9703687, 3944, , , , , 
3945, 675, "Biksti", , 56.6636425, 22.9691711, 3945, , , , , 
3947, 676, "Upenieki", , 56.6612779, 22.8988914, 3947, , , , , 
3948, 676, "Upenieki", , 56.6615449, 22.8994803, 3948, , , , , 
3949, 677, "Sillāči", , 56.6218360, 23.4761506, 3949, , , , , 
3950, 677, "Sillāči", , 56.6219389, 23.4773602, 3950, , , , , 
3952, 678, "Nākotne", , 56.6218877, 23.4376966, 3952, , , , , 
3953, 678, "Nākotne", , 56.6220848, 23.4364078, 3953, , , , , 
3954, 679, "Šķibe", , 56.6197324, 23.4082206, 3954, , , , , 
3955, 679, "Šķibe", , 56.6200418, 23.4104430, 3955, , , , , 
3956, 680, "Namiķi", , 56.6199619, 23.3835298, 3956, , , , , 
3957, 680, "Namiķi", , 56.6200977, 23.3847233, 3957, , , , , 
3958, 681, "Miltiņi", , 56.6258251, 23.3431889, 3958, , , , , 
3959, 9573, "Miltiņkrogs", , 56.6254322, 23.3497015, 3959, , , , , 
3962, 683, "Bancāni", , 55.9104051, 27.0841729, 3962, , , , , 
3965, 685, "Pesčanka", , 55.8945203, 27.2320893, 3965, , , , , 
3966, 685, "Pesčanka", , 55.8944360, 27.2330361, 3966, , , , , 
3967, 686, "Dagdas pagrieziens", , 55.8976122, 27.2920779, 3967, , , , , 
3968, 686, "Dagdas pagrieziens", , 55.8975158, 27.2930462, 3968, , , , , 
3969, 687, "Murovanka", , 55.8935490, 27.3334676, 3969, , , , , 
3970, 687, "Murovanka", , 55.8927186, 27.3354617, 3970, , , , , 
3973, 689, "Kalnieši", , 55.8683810, 27.3781090, 3973, , , , , 
3974, 689, "Kalnieši", , 55.8679850, 27.3787170, 3974, , , , , 
3977, 691, "Ružas", , 56.6303168, 23.3198848, 3977, , , , , 
3978, 6575, "Lielbērze", , 56.6429732, 23.2432729, 3978, , , , , 
3979, 6575, "Lielbērze", , 56.6433185, 23.2417081, 3979, , , , , 
3980, 694, "Annenieki", , 56.6723720, 23.0925617, 3980, , , , , 
3981, 694, "Annenieki", , 56.6721749, 23.0934878, 3981, , , , , 
3984, 695, "Gardene", , 56.6486490, 23.2172625, 3984, , , , , 
3987, 695, "Gardene", , 56.6488017, 23.2172068, 3987, , , , , 
3990, 697, "Annenieki", , 56.6717430, 23.0886850, 3990, , , , , 
3991, 698, "Balvas", , 56.5919128, 23.2857764, 3991, , , , , 
3992, 698, "Balvas", , 56.5909129, 23.2864055, 3992, , , , , 
3995, 701, "Auru skola", , 56.5674975, 23.3006084, 3995, , , , , 
3996, 701, "Auru skola", , 56.5653797, 23.3013282, 3996, , , , , 
3997, 702, "Auru stacija", , 56.5488405, 23.3106710, 3997, , , , , 
3998, 702, "Auru stacija", , 56.5483951, 23.3107346, 3998, , , , , 
3999, 703, "Ķirpēni", , 56.5301228, 23.3228972, 3999, , , , , 
4000, 703, "Ķirpēni", , 56.5289204, 23.3234371, 4000, , , , , 
4001, 704, "Kroņauce", , 56.5183430, 23.3325189, 4001, , , , , 
4002, 704, "Kroņauce", , 56.5181490, 23.3324619, 4002, , , , , 
4003, 705, "Agrofirma Tērvete", , 56.5097582, 23.3385065, 4003, , , , , 
4004, 705, "Agrofirma Tērvete", , 56.5089185, 23.3389858, 4004, , , , , 
4005, 706, "Lempji", , 56.4984211, 23.3458615, 4005, , , , , 
4006, 706, "Lempji", , 56.4993738, 23.3451534, 4006, , , , , 
4007, 707, "Tērvetes dabas parks", , 56.4891016, 23.3643553, 4007, , , , , 
4008, 707, "Tērvetes dabas parks", , 56.4887740, 23.3651700, 4008, , , , , 
4009, 708, "Sprīdīši", , 56.4803065, 23.3809994, 4009, , , , , 
4010, 708, "Sprīdīši", , 56.4800835, 23.3811539, 4010, , , , , 
4011, 709, "Kauči", , 56.5889882, 23.4679181, 4011, , , , , 
4012, 709, "Kauči", , 56.5887414, 23.4667891, 4012, , , , , 
4017, 712, "Ceļnieki", , 56.5592704, 23.3924104, 4017, , , , , 
4018, 712, "Ceļnieki", , 56.5583104, 23.3905238, 4018, , , , , 
4019, 714, "Kroņauce", , 56.5186473, 23.3299882, 4019, , , , , 
4020, 714, "Kroņauce", , 56.5185828, 23.3282661, 4020, , , , , 
4021, 715, "Berjozki", , 55.8238021, 27.4341569, 4021, , , , , 
4022, 715, "Berjozki", , 55.8229355, 27.4343843, 4022, , , , , 
4023, 716, "Berozovka", , 55.8422715, 27.4238636, 4023, , , , , 
4024, 716, "Berozovka", , 55.8416954, 27.4242105, 4024, , , , , 
4028, 717, "Piedrujas pagrieziens", , 55.8001459, 27.4726308, 4028, , , , , 
4029, 720, "Lupandi", , 55.8065843, 27.5230420, 4029, , , , , 
4030, 720, "Lupandi", , 55.8064627, 27.5240016, 4030, , , , , 
4031, 722, "Skujaine", , 56.5063724, 23.2790147, 4031, , , , , 
4032, 722, "Skujaine", , 56.5060475, 23.2771489, 4032, , , , , 
4033, 723, "Apguldes pagrieziens", , 56.5037644, 23.2689759, 4033, , , , , 
4034, 723, "Apguldes pagrieziens", , 56.5030687, 23.2667165, 4034, , , , , 
4037, 725, "Ceroņi", , 56.4915924, 23.2247322, 4037, , , , , 
4038, 725, "Ceroņi", , 56.4912533, 23.2224854, 4038, , , , , 
4039, 726, "Penkule", , 56.4847327, 23.1887496, 4039, , , , , 
4040, 726, "Penkule", , 56.4848674, 23.1880961, 4040, , , , , 
4045, 729, "Patarnieki", , 55.8163840, 27.5891796, 4045, , , , , 
4046, 729, "Patarnieki", , 55.8168406, 27.5924496, 4046, , , , , 
4049, 732, "Augstkalnes pagrieziens", , 56.4839995, 23.1274095, 4049, , , , , 
4050, 732, "Augstkalnes pagrieziens", , 56.4839660, 23.1264630, 4050, , , , , 
4051, 734, "Bēne", , 56.4827169, 23.0649960, 4051, , , , , 
4052, 734, "Bēne", , 56.4829536, 23.0657337, 4052, , , , , 
4057, 737, "Dzelzgaļi", , 56.4794603, 22.9967299, 4057, , , , , 
4058, 737, "Dzelzgaļi", , 56.4795990, 22.9959478, 4058, , , , , 
4059, 742, "Muižnieki", , 56.1707020, 27.8780618, 4059, , , , , 
4060, 742, "Muižnieki", , 56.1710741, 27.8773423, 4060, , , , , 
4061, 743, "Brici", , 56.1739519, 27.8468367, 4061, , , , , 
4062, 743, "Brici", , 56.1741617, 27.8456468, 4062, , , , , 
4063, 745, "Skrīveru institūts", , 56.6267483, 25.1280514, 4063, , , , , 
4064, 745, "Skrīveru institūts", , 56.6269976, 25.1269747, 4064, , , , , 
4065, 746, "Egļeva", , 56.1822772, 27.7725374, 4065, , , , , 
4066, 746, "Egļeva", , 56.1827320, 27.7714744, 4066, , , , , 
4069, 748, "Vaišļi", , 56.2360408, 27.6393880, 4069, , , , , 
4070, 748, "Vaišļi", , 56.2357206, 27.6393648, 4070, , , , , 
4071, 749, "Bunči", , 56.4769769, 22.9473440, 4071, , , , , 
4072, 749, "Bunči", , 56.4762535, 22.9448897, 4072, , , , , 
4073, 750, "Irbēnu pagrieziens", , 56.4801926, 22.9747616, 4073, , , , , 
4074, 750, "Irbēnu pagrieziens", , 56.4804414, 22.9725724, 4074, , , , , 
4075, 751, "Skujas", , 57.8619411, 25.4675510, 4075, , , , , 
4076, 751, "Skujas", , 57.8623497, 25.4669910, 4076, , , , , 
4079, 756, "Mārtiņi", , 56.2236090, 27.6443136, 4079, , , , , 
4080, 756, "Mārtiņi", , 56.2232227, 27.6445949, 4080, , , , , 
4081, 757, "Ezernieki", , 56.1859157, 27.6554135, 4081, , , , , 
4082, 761, "Baltā", , 56.1416095, 27.6264399, 4082, , , , , 
4083, 761, "Baltā", , 56.1419172, 27.6266305, 4083, , , , , 
4086, 763, "Neikuri", , 56.1209268, 27.5807313, 4086, , , , , 
4087, 763, "Neikuri", , 56.1208169, 27.5801733, 4087, , , , , 
4090, 765, "Zundi", , 56.1958854, 27.3312450, 4090, , , , , 
4093, 768, "Zelmeņi", , 56.4504500, 23.3619975, 4093, , , , , 
4094, 769, "Kakti", , 56.4663167, 23.3803388, 4094, , , , , 
4095, 769, "Kakti", , 56.4659979, 23.3797937, 4095, , , , , 
4096, 770, "Šalkas", , 56.4340236, 23.3384523, 4096, , , , , 
4097, 770, "Šalkas", , 56.4338104, 23.3377927, 4097, , , , , 
4098, 771, "Augstkalne", , 56.4052947, 23.3300175, 4098, , , , , 
4099, 773, "Robeža", , 56.3722535, 23.2730848, 4099, , , , , 
4100, 774, "Mariampole", , 56.1632498, 27.3981417, 4100, , , , , 
4101, 774, "Mariampole", , 56.1628779, 27.3979646, 4101, , , , , 
4106, 778, "Maisiņi", , 56.7236370, 23.3936190, 4106, , , , , 
4107, 778, "Maisiņi", , 56.7226626, 23.3951407, 4107, , , , , 
4112, 785, "Vēdzeles", , 56.7783758, 23.3792922, 4112, , , , , 
4113, 785, "Vēdzeles", , 56.7793460, 23.3789360, 4113, , , , , 
4114, 786, "Brīvības", , 56.7003089, 22.9851555, 4114, , , , , 
4115, 787, "Bikstu stacija", , 56.6911619, 22.9765305, 4115, , , , , 
4122, 793, "Zebrene", , 56.6057904, 22.8915704, 4122, , , , , 
4125, 796, "Mārti", , 56.5626441, 22.8930333, 4125, , , , , 
4126, 796, "Mārti", , 56.5629329, 22.8929082, 4126, , , , , 
4127, 798, "Putni", , 56.4847505, 22.8690873, 4127, , , , , 
4128, 800, "Kazimirova", , 56.1422812, 27.4443544, 4128, , , , , 
4129, 800, "Kazimirova", , 56.1415641, 27.4451797, 4129, , , , , 
4130, 802, "Vītiņi", , 56.4413065, 22.9221158, 4130, , , , , 
4131, 802, "Vītiņi", , 56.4404630, 22.9227110, 4131, , , , , 
4134, 805, "Runči", , 56.6467181, 23.2950016, 4134, , , , , 
4137, 807, "Lejas", , 56.6580330, 23.3250010, 4137, , , , , 
4142, 810, "Rasas", , 56.6889210, 23.3686060, 4142, , , , , 
4143, 810, "Rasas", , 56.6891480, 23.3687815, 4143, , , , , 
4144, 811, "Parūķi", , 56.6024965, 23.3039356, 4144, , , , , 
4145, 813, "Vērpji", , 56.5866517, 23.3333836, 4145, , , , , 
4146, 813, "Vērpji", , 56.5859909, 23.3343157, 4146, , , , , 
4147, 815, "Krimūnas", , 56.5686315, 23.3766520, 4147, , , , , 
4148, 817, "Akācijas", , 56.5527925, 23.4153172, 4148, , , , , 
4149, 817, "Akācijas", , 56.5525590, 23.4162504, 4149, , , , , 
4150, 818, "Panākumi", , 56.5400205, 23.4449892, 4150, , , , , 
4151, 818, "Panākumi", , 56.5393936, 23.4460712, 4151, , , , , 
4152, 819, "Sakas stacija", , 56.8525380, 21.2028724, 4152, , , , , 
4153, 819, "Sakas stacija", , 56.8519355, 21.2023633, 4153, , , , , 
4156, 821, "Turaidas", , 56.8145712, 21.2265119, 4156, , , , , 
4157, 821, "Turaidas", , 56.8138222, 21.2261062, 4157, , , , , 
4159, 822, "Mežaine", , 56.7878203, 21.2474783, 4159, , , , , 
4160, 823, "Upsēde", , 56.7726596, 21.2566205, 4160, , , , , 
4161, 823, "Upsēde", , 56.7722816, 21.2561765, 4161, , , , , 
4162, 824, "Mežvidi", , 56.7511556, 21.2539515, 4162, , , , , 
4163, 824, "Mežvidi", , 56.7509860, 21.2535571, 4163, , , , , 
4168, 827, "Vērgale", , 56.7137966, 21.1752664, 4168, , , , , 
4169, 827, "Vērgale", , 56.7131362, 21.1739852, 4169, , , , , 
4172, 829, "Ploce", , 56.6769685, 21.1391365, 4172, , , , , 
4173, 829, "Ploce", , 56.6776341, 21.1393860, 4173, , , , , 
4174, 830, "Medze", , 56.6520781, 21.1287177, 4174, , , , , 
4175, 830, "Medze", , 56.6511596, 21.1282946, 4175, , , , , 
4178, 832, "Kalnmalas", , 56.6196272, 21.1293798, 4178, , , , , 
4179, 832, "Kalnmalas", , 56.6190260, 21.1292105, 4179, , , , , 
4180, 833, "Kapsēde", , 56.5902806, 21.1356654, 4180, , , , , 
4181, 833, "Kapsēde", , 56.5899179, 21.1352010, 4181, , , , , 
4184, 836, "Gūžas", , 56.5631609, 21.1450603, 4184, , , , , 
4185, 836, "Gūžas", , 56.5622646, 21.1450209, 4185, , , , , 
4186, 837, "Grobiņa", , 56.5408998, 21.1551193, 4186, , , , , 
4190, 841, "Rokasbirze", , 56.7121958, 21.5569808, 4190, , , , , 
4192, 841, "Rokasbirze", , 56.7121593, 21.5556224, 4192, , , , , 
4193, 843, "Dzērve", , 56.7094014, 21.4802227, 4193, , , , , 
4194, 843, "Dzērve", , 56.7094067, 21.4795190, 4194, , , , , 
4195, 844, "Dubeņi", , 56.6995050, 21.4452523, 4195, , , , , 
4196, 844, "Dubeņi", , 56.6998003, 21.4457764, 4196, , , , , 
4197, 845, "Niedras", , 56.6880200, 21.4074713, 4197, , , , , 
4198, 845, "Niedras", , 56.6879942, 21.4066794, 4198, , , , , 
4199, 846, "Māli", , 56.6669084, 21.3823082, 4199, , , , , 
4200, 846, "Māli", , 56.6667620, 21.3816134, 4200, , , , , 
4201, 847, "Tīsi", , 56.6594129, 21.3450231, 4201, , , , , 
4202, 847, "Tīsi", , 56.6592663, 21.3441671, 4202, , , , , 
4203, 848, "Upeslīči", , 56.6515605, 21.3219592, 4203, , , , , 
4204, 848, "Upeslīči", , 56.6515478, 21.3213144, 4204, , , , , 
4205, 849, "Aistere", , 56.6398435, 21.2986797, 4205, , , , , 
4206, 849, "Aistere", , 56.6402870, 21.2987352, 4206, , , , , 
4207, 850, "Birznieki", , 56.6099346, 21.2872093, 4207, , , , , 
4208, 850, "Birznieki", , 56.6094612, 21.2867337, 4208, , , , , 
4209, 851, "Smilškalni", , 56.5882409, 21.2714421, 4209, , , , , 
4210, 851, "Smilškalni", , 56.5877760, 21.2708333, 4210, , , , , 
4211, 852, "Līči", , 56.5663929, 21.2711691, 4211, , , , , 
4212, 852, "Līči", , 56.5669645, 21.2714813, 4212, , , , , 
4213, 853, "Grobiņas lauktehnika", , 56.5330659, 21.1581452, 4213, , , , , 
4215, 856, "Dubeņi", , 56.4932745, 21.1807894, 4215, , , , , 
4216, 858, "Zvērsaimniecība", , 56.4755621, 21.1985617, 4216, , , , , 
4217, 859, "Tilti", , 56.4273277, 21.2204777, 4217, , , , , 
4218, 861, "Ķīburi", , 56.3941008, 21.2443253, 4218, , , , , 
4219, 865, "Bārta", , 56.3509124, 21.3218817, 4219, , , , , 
4220, 867, "Ķesteri", , 56.3268208, 21.3134961, 4220, , , , , 
4221, 869, "Akmentiņi", , 56.2862421, 21.3354306, 4221, , , , , 
4222, 870, "Dunika", , 56.2759865, 21.3253209, 4222, , , , , 
4223, 871, "Šuķene", , 56.2566274, 21.2927864, 4223, , , , , 
4224, 874, "Sudargi", , 56.2148601, 21.2545834, 4224, , , , , 
4225, 875, "Kliņķi", , 56.2079693, 21.2227181, 4225, , , , , 
4226, 876, "Skaistkalni", , 56.1994595, 21.2084069, 4226, , , , , 
4227, 877, "Ķāķišķe", , 56.1895723, 21.1874368, 4227, , , , , 
4228, 879, "Dārznieki", , 56.4188672, 21.6109644, 4228, , , , , 
4229, 880, "Mazgramzda", , 56.4019566, 21.6255404, 4229, , , , , 
4230, 6909, "Tikaiņi", , 56.9452545, 27.1892805, 4230, , , , , 
4231, 882, "Gramzda", , 56.3682645, 21.6036043, 4231, , , , , 
4232, 885, "Pakalnīšķi", , 56.3119554, 21.5496946, 4232, , , , , 
4240, 893, "Kazdanga", , 56.7294764, 21.7339526, 4240, , , , , 
4241, 893, "Kazdanga", , 56.7294038, 21.7349702, 4241, , , , , 
4244, 895, "Rokaiži", , 56.7312245, 21.6641468, 4244, , , , , 
4245, 895, "Rokaiži", , 56.7309609, 21.6630645, 4245, , , , , 
4248, 897, "Dārziņi", , 56.6095240, 21.0380117, 4248, , , , , 
4249, 900, "Zvaigznes", , 56.6216006, 21.0426317, 4249, , , , , 
4250, 901, "Namiķi", , 56.6279284, 21.0485049, 4250, , , , , 
4251, 902, "Šķēde", , 56.6401675, 21.0451344, 4251, , , , , 
4252, 903, "Vaski", , 56.6535208, 21.0540863, 4252, , , , , 
4253, 904, "Kopdarbs", , 56.6626571, 21.0742365, 4253, , , , , 
4254, 31, "Ziemupe", , 56.7485373, 21.0780279, 4254, , , , , 
4255, 910, "Aptieka", , 56.7118151, 21.1786161, 4255, , , , , 
4257, 912, "Bebe", , 56.6735965, 21.2339596, 4257, , , , , 
4258, 914, "Dekšņas", , 56.7720310, 21.4729495, 4258, , , , , 
4259, 917, "Dzērves skola", , 56.7502290, 21.4048072, 4259, , , , , 
4260, 918, "Cīrava", , 56.7364676, 21.3853288, 4260, , , , , 
4261, 918, "Cīrava", , 56.7365990, 21.3851562, 4261, , , , , 
4262, 921, "Binderi", , 56.7112911, 21.3059057, 4262, , , , , 
4263, 924, "Ilmājas stacija", , 56.5745491, 21.5508744, 4263, , , , , 
4264, 926, "Krote", , 56.5423458, 21.5477195, 4264, , , , , 
4265, 927, "Pērles", , 56.5151653, 21.5681126, 4265, , , , , 
4266, 928, "Robežnieki", , 56.4932209, 21.5727953, 4266, , , , , 
4267, 929, "Knīveri", , 56.4721001, 21.5832598, 4267, , , , , 
4268, 929, "Knīveri", , 56.4719764, 21.5832078, 4268, , , , , 
4269, 933, "Viņķi", , 56.7496164, 21.5710946, 4269, , , , , 
4270, 935, "Ķebļi", , 56.7737377, 21.5240250, 4270, , , , , 
4271, 937, "Apriķi", , 56.8086025, 21.4993858, 4271, , , , , 
4272, 940, "Dzērvenieki", , 56.7529608, 21.4396849, 4272, , , , , 
4273, 941, "Vērgales centrs", , 56.6978345, 21.1976689, 4273, , , , , 
4274, 941, "Vērgales centrs", , 56.6980799, 21.1971635, 4274, , , , , 
4275, 942, "Mazlāņi", , 56.6157566, 21.5098568, 4275, , , , , 
4276, 943, "Vētras", , 56.7419082, 21.7391558, 4276, , , , , 
4277, 945, "Cildi", , 56.7661069, 21.7101927, 4277, , , , , 
4278, 947, "Ievade", , 56.6889005, 21.5295148, 4278, , , , , 
4279, 948, "Stroķi", , 56.6626055, 21.5529323, 4279, , , , , 
4280, 951, "Ostnieki", , 56.6224316, 21.5572612, 4280, , , , , 
4281, 952, "Vecpils", , 56.6248646, 21.4939145, 4281, , , , , 
4283, 953, "Katrīnas", , 56.6042349, 21.4755107, 4283, , , , , 
4284, 954, "Ozoli", , 56.5918006, 21.4725993, 4284, , , , , 
4285, 956, "Durbes stacija", , 56.5643397, 21.3984304, 4285, , , , , 
4286, 957, "Pļaviņas", , 56.5723435, 21.4297902, 4286, , , , , 
4287, 958, "Padone", , 56.5643792, 21.4583141, 4287, , , , , 
4288, 960, "Vārve", , 56.5541926, 21.3737439, 4288, , , , , 
4289, 961, "Ievnieki", , 56.5406407, 21.3805582, 4289, , , , , 
4290, 965, "Ziemeļi", , 56.5087384, 21.4680591, 4290, , , , , 
4291, 966, "Tadaiķi", , 56.5292636, 21.4169093, 4291, , , , , 
4292, 967, "Bunka", , 56.4998193, 21.4998760, 4292, , , , , 
4293, 970, "Vītoli", , 56.4875692, 21.8528633, 4293, , , , , 
4294, 970, "Vītoli", , 56.4881573, 21.8528721, 4294, , , , , 
4295, 971, "Velda", , 56.4619631, 21.8612564, 4295, , , , , 
4296, 975, "Daļģi", , 56.4492519, 21.5191458, 4296, , , , , 
4297, 976, "Paplakas stacija", , 56.4466333, 21.4958542, 4297, , , , , 
4298, 977, "Sarmas", , 56.4516510, 21.4668084, 4298, , , , , 
4299, 979, "Paplaka", , 56.4532398, 21.4430969, 4299, , , , , 
4300, 981, "Skola", , 56.4715187, 21.4139720, 4300, , , , , 
4301, 982, "Virga", , 56.4845645, 21.4059838, 4301, , , , , 
4302, 984, "Jūrnieki", , 56.4296611, 21.5709708, 4302, , , , , 
4303, 985, "Purmsāti", , 56.4040307, 21.5255303, 4303, , , , , 
4304, 986, "Salmiņi", , 56.3924088, 21.4828406, 4304, , , , , 
4305, 987, "Priednieki", , 56.3817754, 21.4602307, 4305, , , , , 
4306, 988, "Priekule", , 56.4435586, 21.5951173, 4306, , , , , 
4307, 989, "Kalnenieki", , 56.4373318, 21.6362558, 4307, , , , , 
4309, 989, "Kalnenieki", , 56.4374507, 21.6355601, 4309, , , , , 
4310, 990, "Gulbene", , 56.4235726, 21.6964222, 4310, , , , , 
4311, 990, "Gulbene", , 56.4230290, 21.6977838, 4311, , , , , 
4314, 992, "Auguste", , 56.4218539, 21.7615813, 4314, , , , , 
4315, 992, "Auguste", , 56.4219030, 21.7615076, 4315, , , , , 
4316, 993, "Lācēni", , 56.4190840, 21.8028079, 4316, , , , , 
4317, 993, "Lācēni", , 56.4189315, 21.8032570, 4317, , , , , 
4320, 995, "Vaiņode", , 56.4175572, 21.8555191, 4320, , , , , 
4326, 998, "Sloboda", , 56.1072820, 27.4915770, 4326, , , , , 
4327, 998, "Sloboda", , 56.1067620, 27.4922530, 4327, , , , , 
4330, 1000, "Murāni", , 56.1174528, 27.4455529, 4330, , , , , 
4331, 1000, "Murāni", , 56.1177785, 27.4445547, 4331, , , , , 
4334, 1002, "Astašova", , 56.1270395, 27.3800591, 4334, , , , , 
4335, 1002, "Astašova", , 56.1273818, 27.3791986, 4335, , , , , 
4338, 1004, "Jaunokra", , 56.1333924, 27.3090565, 4338, , , , , 
4339, 1004, "Jaunokra", , 56.1332731, 27.3070402, 4339, , , , , 
4345, 1007, "Priežmale", , 56.1426446, 27.2116852, 4345, , , , , 
4350, 1010, "Ezerkalns", , 55.9142773, 27.2072747, 4350, , , , , 
4351, 1010, "Ezerkalns", , 55.9144191, 27.2080512, 4351, , , , , 
4352, 1012, "Baltā", , 55.9298564, 27.2546577, 4352, , , , , 
4353, 1012, "Baltā", , 55.9298956, 27.2554630, 4353, , , , , 
4356, 1014, "Voini", , 55.9459820, 27.2962592, 4356, , , , , 
4357, 1014, "Voini", , 55.9461691, 27.2972335, 4357, , , , , 
4362, 1017, "Geibi", , 55.9613468, 27.3704562, 4362, , , , , 
4363, 1017, "Geibi", , 55.9613498, 27.3712580, 4363, , , , , 
4366, 1019, "Putāni", , 55.9863607, 27.4253772, 4366, , , , , 
4367, 1019, "Putāni", , 55.9865153, 27.4257007, 4367, , , , , 
4368, 1021, "Ļudviki", , 56.0210764, 27.4520283, 4368, , , , , 
4369, 1021, "Ļudviki", , 56.0218038, 27.4522722, 4369, , , , , 
4371, 1023, "Uzvara", , 56.0526660, 27.4817900, 4371, , , , , 
4372, 1023, "Uzvara", , 56.0526990, 27.4815810, 4372, , , , , 
4375, 1026, "Pagrieziens uz Dzērumiem", , 56.7107751, 24.2472411, 4375, , , , , 
4376, 1026, "Pagrieziens uz Dzērumiem", , 56.7084242, 24.2461315, 4376, , , , , 
4383, 1032, "Strazdes skola", , 57.1302700, 22.7244566, 4383, , , , , 
4384, 1033, "Kombuļi", , 55.9760811, 27.1781964, 4384, , , , , 
4386, 1033, "Kombuļi", , 55.9767413, 27.1780535, 4386, , , , , 
4389, 1035, "Trupi", , 56.0164293, 27.1404547, 4389, , , , , 
4390, 1035, "Trupi", , 56.0160250, 27.1406943, 4390, , , , , 
4391, 1036, "Raginski", , 56.0311667, 27.1477891, 4391, , , , , 
4392, 1036, "Raginski", , 56.0315328, 27.1481527, 4392, , , , , 
4395, 1038, "Grāveri", , 56.0610049, 27.1366636, 4395, , , , , 
4397, 1039, "Darbnīcas", , 56.3740378, 24.6252497, 4397, , , , , 
4398, 1039, "Darbnīcas", , 56.3748956, 24.6262616, 4398, , , , , 
4399, 1040, "Borovka", , 56.0912633, 27.1039551, 4399, , , , , 
4400, 1040, "Borovka", , 56.0915709, 27.1038899, 4400, , , , , 
4401, 1041, "Lēdas", , 57.1346863, 22.6689257, 4401, , , , , 
4402, 1042, "Kaplava", , 55.8609900, 27.0351181, 4402, , , , , 
4403, 1042, "Kaplava", , 55.8605430, 27.0362882, 4403, , , , , 
4404, 1043, "Simukliški", , 55.8527989, 27.0704351, 4404, , , , , 
4405, 1043, "Simukliški", , 55.8524150, 27.0713677, 4405, , , , , 
4406, 1047, "Tīrumi", , 57.1395276, 22.6196464, 4406, , , , , 
4407, 9587, "Vecbebri", , 56.7206009, 25.4886878, 4407, , , , , 
4408, 1049, "Zabari", , 56.0608042, 27.5646356, 4408, , , , , 
4409, 1049, "Zabari", , 56.0602184, 27.5645012, 4409, , , , , 
4410, 1051, "Dervanišķi", , 56.0356834, 27.5929416, 4410, , , , , 
4411, 1051, "Dervanišķi", , 56.0353882, 27.5932526, 4411, , , , , 
4412, 1053, "Klabovci", , 56.0136618, 27.6522244, 4412, , , , , 
4413, 1054, "Borisovka", , 56.0002167, 27.6766360, 4413, , , , , 
4414, 1055, "Melkeri", , 55.9955777, 27.7058887, 4414, , , , , 
4415, 1057, "Kļukuški", , 56.1767211, 27.5259559, 4415, , , , , 
4416, 1060, "Ruduški", , 56.2220770, 27.5062942, 4416, , , , , 
4417, 1061, "Mariampole", , 56.1605444, 27.3865955, 4417, , , , , 
4418, 1061, "Mariampole", , 56.1606396, 27.3854414, 4418, , , , , 
4420, 1063, "Jaunokra", , 56.1349014, 27.3118575, 4420, , , , , 
4421, 1064, "Vecokra", , 56.1242776, 27.2834426, 4421, , , , , 
4422, 1065, "Strodi", , 56.1083685, 27.2450996, 4422, , , , , 
4423, 1065, "Strodi", , 56.1085685, 27.2454209, 4423, , , , , 
4424, 1066, "Voveri", , 56.1015700, 27.2180124, 4424, , , , , 
4425, 1067, "Sloboda", , 56.0814500, 27.1831648, 4425, , , , , 
4426, 1069, "Roģeļi", , 56.0577297, 27.1603157, 4426, , , , , 
4427, 1071, "Jauncekule", , 56.9214304, 24.4218163, 4427, , , , , 
4428, 1072, "Ščedrati", , 56.0947725, 27.4078145, 4428, , , , , 
4430, 1075, "Stankeviči", , 56.1043515, 27.3236984, 4430, , , , , 
4431, 1077, "Ignatova", , 56.1048566, 27.3908514, 4431, , , , , 
4432, 1078, "Skudriķi", , 56.0679520, 27.4828445, 4432, , , , , 
4433, 1078, "Skudriķi", , 56.0678844, 27.4822162, 4433, , , , , 
4434, 1080, "Konstantinova 1", , 56.0637433, 27.4381344, 4434, , , , , 
4435, 1080, "Konstantinova 1", , 56.0637965, 27.4375250, 4435, , , , , 
4436, 1081, "Auleja", , 56.0575302, 27.2791229, 4436, , , , , 
4438, 1081, "Auleja", , 56.0576507, 27.2785580, 4438, , , , , 
4439, 1082, "Andrupene", , 56.1841239, 27.3925089, 4439, , , , , 
4440, 1084, "Artjomovka", , 56.1331730, 27.5295399, 4440, , , , , 
4441, 1084, "Artjomovka", , 56.1340359, 27.5296570, 4441, , , , , 
4442, 1085, "Zigmani", , 56.1521848, 27.5309571, 4442, , , , , 
4443, 1085, "Zigmani", , 56.1522018, 27.5308247, 4443, , , , , 
4444, 1086, "Kondraši", , 56.1661433, 27.5254346, 4444, , , , , 
4445, 1087, "Andzeļi", , 56.1690019, 27.5528176, 4445, , , , , 
4446, 1089, "Vaivodi", , 56.1536740, 27.6935030, 4446, , , , , 
4447, 1090, "Dabračina", , 56.1391490, 27.7291263, 4447, , , , , 
4448, 1091, "Svariņi", , 56.1261877, 27.7488688, 4448, , , , , 
4450, 1093, "Beresni", , 56.1123331, 27.8068058, 4450, , , , , 
4451, 1094, "Rusecki", , 56.1043615, 27.8353114, 4451, , , , , 
4452, 1096, "Zezjuļka", , 56.0988408, 27.8761759, 4452, , , , , 
4453, 1096, "Zezjuļka", , 56.0981021, 27.8775550, 4453, , , , , 
4454, 1097, "Punduri", , 56.1046887, 27.9012510, 4454, , , , , 
4455, 1097, "Punduri", , 56.1046548, 27.9014662, 4455, , , , , 
4456, 1099, "Andžāni", , 56.1121475, 27.9451659, 4456, , , , , 
4457, 1099, "Andžāni", , 56.1120785, 27.9453546, 4457, , , , , 
4458, 1101, "Šķaune", , 56.1402222, 28.0045059, 4458, , , , , 
4460, 1102, "Alženova-2", , 56.0895816, 27.5921314, 4460, , , , , 
4462, 1102, "Alženova-2", , 56.0896040, 27.5929502, 4462, , , , , 
4463, 1104, "Veiziniški", , 56.0772641, 27.6439186, 4463, , , , , 
4464, 1104, "Veiziniški", , 56.0771506, 27.6440503, 4464, , , , , 
4465, 1106, "Spīļukalns", , 56.0745153, 27.6941917, 4465, , , , , 
4466, 1106, "Spīļukalns", , 56.0739465, 27.6967698, 4466, , , , , 
4467, 1109, "Zezuļova", , 56.0655856, 27.8013098, 4467, , , , , 
4468, 1109, "Zezuļova", , 56.0655180, 27.8017101, 4468, , , , , 
4469, 1110, "Kromaniški", , 56.0849912, 27.6938672, 4469, , , , , 
4470, 1110, "Kromaniški", , 56.0851171, 27.6938140, 4470, , , , , 
4471, 1111, "Rutki", , 56.0939430, 27.7313428, 4471, , , , , 
4472, 1111, "Rutki", , 56.0939244, 27.7312649, 4472, , , , , 
4473, 1114, "Pušča", , 56.0693964, 27.8485094, 4473, , , , , 
4474, 1118, "Apaļi", , 55.9947481, 27.7520621, 4474, , , , , 
4475, 1119, "Robežnieki", , 55.9757135, 27.6037274, 4475, , , , , 
4476, 1123, "Pleiki", , 55.9453232, 27.5019675, 4476, , , , , 
4477, 1124, "Zarečje", , 55.9427050, 27.4832342, 4477, , , , , 
4478, 1124, "Zarečje", , 55.9425800, 27.4831715, 4478, , , , , 
4479, 1125, "Manuha", , 55.9332246, 27.4697691, 4479, , , , , 
4480, 1125, "Manuha", , 55.9323548, 27.4676040, 4480, , , , , 
4481, 1126, "Pakulišķi", , 55.9247859, 27.4233142, 4481, , , , , 
4482, 1126, "Pakulišķi", , 55.9247000, 27.4221240, 4482, , , , , 
4483, 1127, "Evarti", , 55.9094589, 27.3862518, 4483, , , , , 
4484, 1127, "Evarti", , 55.9093165, 27.3854244, 4484, , , , , 
4487, 1132, "Suhorukovka", , 56.0012472, 27.6401154, 4487, , , , , 
4488, 1132, "Suhorukovka", , 56.0017007, 27.6400022, 4488, , , , , 
4489, 1134, "Piedruja", , 55.7972903, 27.4491906, 4489, , , , , 
4491, 1141, "Vitrupe", , 57.5943018, 24.5151990, 4491, , , , , 
4492, 1141, "Vitrupe", , 57.5932186, 24.5151985, 4492, , , , , 
4493, 1142, "Priedaine", , 55.8923548, 27.1516591, 4493, , , , , 
4494, 1142, "Priedaine", , 55.8927133, 27.1522552, 4494, , , , , 
4495, 1144, "Dvorišče", , 55.8560416, 27.1626829, 4495, , , , , 
4496, 1146, "Teņki", , 55.8396672, 27.1772058, 4496, , , , , 
4497, 1148, "Bruņenieki", , 55.8358332, 27.2389185, 4497, , , , , 
4498, 1149, "Varnaviči", , 55.8291839, 27.2860796, 4498, , , , , 
4499, 1150, "Ūdrīši", , 55.9098552, 27.1344499, 4499, , , , , 
4500, 1150, "Ūdrīši", , 55.9101569, 27.1339206, 4500, , , , , 
4502, 1152, "Lemešovka", , 55.9255030, 27.0960011, 4502, , , , , 
4503, 1153, "Ļudvikova", , 55.9357270, 27.0776550, 4503, , , , , 
4505, 1156, "Truli", , 55.9819834, 26.9960005, 4505, , , , , 
4506, 1157, "Suveizdi", , 55.9980178, 27.0084301, 4506, , , , , 
4507, 1160, "Borovije", , 56.0427850, 27.0013929, 4507, , , , , 
4508, 1160, "Borovije", , 56.0429373, 27.0016238, 4508, , , , , 
4509, 1161, "Aleksandrova", , 56.0820662, 27.4273265, 4509, , , , , 
4510, 1161, "Aleksandrova", , 56.0820878, 27.4277685, 4510, , , , , 
4511, 1162, "Marhileviči", , 56.0664112, 27.0127623, 4511, , , , , 
4512, 1162, "Marhileviči", , 56.0665821, 27.0129993, 4512, , , , , 
4513, 1163, "Izvalta", , 55.9567793, 27.0239519, 4513, , , , , 
4517, 1167, "Grāveri", , 56.0697426, 27.1268645, 4517, , , , , 
4519, 1168, "Kombuļi", , 55.9825965, 27.1904163, 4519, , , , , 
4520, 1168, "Kombuļi", , 55.9827519, 27.1910196, 4520, , , , , 
4521, 1170, "Sauleskalns", , 55.9966478, 27.2256197, 4521, , , , , 
4522, 1170, "Sauleskalns", , 55.9971335, 27.2258462, 4522, , , , , 
4523, 1171, "Matiļi", , 56.0119448, 27.2242044, 4523, , , , , 
4524, 1172, "Dzalbi", , 56.0256400, 27.2372975, 4524, , , , , 
4525, 1172, "Dzalbi", , 56.0260349, 27.2378323, 4525, , , , , 
4526, 1173, "Lesnije Doski", , 56.0371133, 27.2410159, 4526, , , , , 
4527, 1174, "Ezergals", , 56.0510727, 27.2443653, 4527, , , , , 
4528, 1175, "Skaista", , 55.9553000, 27.3769989, 4528, , , , , 
4529, 1175, "Skaista", , 55.9557086, 27.3771926, 4529, , , , , 
4534, 1180, "Slostovka", , 56.0198780, 26.9709502, 4534, , , , , 
4535, 1180, "Slostovka", , 56.0197810, 26.9710475, 4535, , , , , 
4536, 1181, "Šķeltova", , 56.0234351, 27.0076470, 4536, , , , , 
4537, 1181, "Šķeltova", , 56.0235821, 27.0068123, 4537, , , , , 
4539, 1183, "Nikucki", , 56.0366421, 27.0661112, 4539, , , , , 
4541, 1185, "Kovaļova", , 56.0459351, 27.1020012, 4541, , , , , 
4542, 1187, "Litene", , 57.1943938, 27.0144988, 4542, , , , , 
4543, 1187, "Litene", , 57.1947447, 27.0167175, 4543, , , , , 
4544, 1188, "Skulte", , 57.3301406, 24.4374181, 4544, , , , , 
4545, 1188, "Skulte", , 57.3317441, 24.4400416, 4545, , , , , 
4554, 1193, "Kursīši", , 57.3906698, 24.4285517, 4554, , , , , 
4555, 1193, "Kursīši", , 57.3909621, 24.4288653, 4555, , , , , 
4556, 1194, "Dunte", , 57.4038868, 24.4300984, 4556, , , , , 
4557, 1194, "Dunte", , 57.4047230, 24.4309205, 4557, , , , , 
4560, 1196, "Vīganti", , 57.4240989, 24.4288357, 4560, , , , , 
4561, 1196, "Vīganti", , 57.4254846, 24.4293320, 4561, , , , , 
4566, 1200, "Jelgavkrasti", , 57.4653714, 24.4347184, 4566, , , , , 
4567, 1200, "Jelgavkrasti", , 57.4672951, 24.4352914, 4567, , , , , 
4574, 1205, "Oltūži", , 57.5687461, 24.4342831, 4574, , , , , 
4575, 1205, "Oltūži", , 57.5707873, 24.4344572, 4575, , , , , 
4576, 1206, "Dzeņi", , 57.6126554, 24.3962327, 4576, , , , , 
4577, 1206, "Dzeņi", , 57.6158455, 24.3933868, 4577, , , , , 
4578, 1207, "Vitrupe", , 57.6383647, 24.3767041, 4578, , , , , 
4579, 1207, "Vitrupe", , 57.6394383, 24.3765597, 4579, , , , , 
4580, 1209, "Lāņi", , 57.6743840, 24.3836651, 4580, , , , , 
4581, 1209, "Lāņi", , 57.6747662, 24.3839577, 4581, , , , , 
4584, 1211, "Svētciems", , 57.7029815, 24.3712795, 4584, , , , , 
4585, 1211, "Svētciems", , 57.7032966, 24.3713889, 4585, , , , , 
4588, 1213, "Salacgrīva", , 57.7569555, 24.3623938, 4588, , , , , 
4589, 6909, "Tikaiņi", , 56.9453711, 27.1896885, 4589, , , , , 
4590, 1214, "Vidusskola", , 57.7665569, 24.3559148, 4590, , , , , 
4591, 1214, "Vidusskola", , 57.7671465, 24.3561232, 4591, , , , , 
4594, 1216, "Kuiviži", , 57.7929659, 24.3514787, 4594, , , , , 
4595, 1216, "Kuiviži", , 57.7939157, 24.3512900, 4595, , , , , 
4596, 1217, "Šķūņmeži", , 57.8212368, 24.3463710, 4596, , , , , 
4597, 1217, "Šķūņmeži", , 57.8219660, 24.3464100, 4597, , , , , 
4604, 1221, "Augstroze", , 57.5117655, 24.9958064, 4604, , , , , 
4605, 1221, "Augstroze", , 57.5117526, 24.9952278, 4605, , , , , 
4608, 1223, "Oliņi", , 57.5188329, 24.9451060, 4608, , , , , 
4609, 1223, "Oliņi", , 57.5190692, 24.9449251, 4609, , , , , 
4612, 1225, "Iesalkāja", , 57.5295005, 24.8975241, 4612, , , , , 
4613, 1225, "Iesalkāja", , 57.5296974, 24.8970696, 4613, , , , , 
4616, 1227, "Umurga", , 57.5141546, 24.8158144, 4616, , , , , 
4617, 1227, "Umurga", , 57.5137824, 24.8120190, 4617, , , , , 
4620, 1229, "Teteri", , 57.5184359, 24.6449478, 4620, , , , , 
4621, 1229, "Teteri", , 57.5190177, 24.6428557, 4621, , , , , 
4622, 1230, "Kalnāres", , 57.5250182, 24.5894711, 4622, , , , , 
4623, 1230, "Kalnāres", , 57.5252831, 24.5878883, 4623, , , , , 
4625, 1232, "Mežmaļi", , 57.5146486, 24.5228876, 4625, , , , , 
4626, 1232, "Mežmaļi", , 57.5143287, 24.5216862, 4626, , , , , 
4627, 1233, "Tūjas muiža", , 57.5058491, 24.5015999, 4627, , , , , 
4628, 1233, "Tūjas muiža", , 57.5061457, 24.5017844, 4628, , , , , 
4631, 1235, "Kaijas", , 57.5003993, 24.4477628, 4631, , , , , 
4632, 1235, "Kaijas", , 57.5003784, 24.4470069, 4632, , , , , 
4633, 1236, "Tallinas šoseja", , 57.4964563, 24.4335063, 4633, , , , , 
4634, 1236, "Tallinas šoseja", , 57.4964167, 24.4329975, 4634, , , , , 
4635, 1237, "Tūja", , 57.4888790, 24.3905778, 4635, , , , , 
4636, 1239, "Ērmi", , 57.5549492, 24.6700219, 4636, , , , , 
4637, 1239, "Ērmi", , 57.5551706, 24.6701057, 4637, , , , , 
4638, 1241, "Radziņi", , 57.5843597, 24.6596178, 4638, , , , , 
4639, 1241, "Radziņi", , 57.5853348, 24.6603195, 4639, , , , , 
4640, 1242, "Šķirstiņi", , 57.6113931, 24.6575040, 4640, , , , , 
4641, 1242, "Šķirstiņi", , 57.6117955, 24.6580893, 4641, , , , , 
4643, 1244, "Dzelves", , 57.6405093, 24.6544412, 4643, , , , , 
4644, 1244, "Dzelves", , 57.6411891, 24.6551580, 4644, , , , , 
4645, 1246, "Drieliņi", , 57.6699275, 24.6709272, 4645, , , , , 
4646, 1246, "Drieliņi", , 57.6706632, 24.6708447, 4646, , , , , 
4647, 1247, "Sila kapi", , 56.8444985, 24.0118824, 4647, , , , , 
4648, 1249, "Ķekari", , 57.7191723, 24.6124414, 4648, , , , , 
4649, 1249, "Ķekari", , 57.7195987, 24.6123087, 4649, , , , , 
4650, 1250, "Pagrieziens uz  Aloju", , 57.7479131, 24.5913000, 4650, , , , , 
4651, 1250, "Pagrieziens uz  Aloju", , 57.7483748, 24.5912531, 4651, , , , , 
4652, 1255, "Steliņi", , 57.7612588, 24.4559369, 4652, , , , , 
4653, 1255, "Steliņi", , 57.7610930, 24.4553836, 4653, , , , , 
4654, 1257, "Upeslīči", , 57.7517998, 24.4174286, 4654, , , , , 
4655, 1257, "Upeslīči", , 57.7513181, 24.4166229, 4655, , , , , 
4656, 1259, "Silkalni", , 57.5368565, 24.7441446, 4656, , , , , 
4657, 1259, "Silkalni", , 57.5374582, 24.7449709, 4657, , , , , 
4658, 1260, "Priedes", , 57.5507519, 24.7584590, 4658, , , , , 
4659, 1260, "Priedes", , 57.5512428, 24.7591423, 4659, , , , , 
4660, 1261, "Tiegaži", , 57.5743891, 24.7710178, 4660, , , , , 
4661, 1261, "Tiegaži", , 57.5747733, 24.7714355, 4661, , , , , 
4662, 1262, "Namnieki", , 57.5880107, 24.7817761, 4662, , , , , 
4663, 1262, "Namnieki", , 57.5884179, 24.7826503, 4663, , , , , 
4664, 1263, "Spurģi", , 57.6015969, 24.8039411, 4664, , , , , 
4665, 1263, "Spurģi", , 57.6021433, 24.8051751, 4665, , , , , 
4666, 1264, "Pociema skola", , 57.6181490, 24.8324782, 4666, , , , , 
4667, 1264, "Pociema skola", , 57.6183809, 24.8333538, 4667, , , , , 
4668, 1265, "Šķobes", , 57.6334268, 24.8717469, 4668, , , , , 
4669, 1265, "Šķobes", , 57.6337567, 24.8726437, 4669, , , , , 
4670, 1266, "Puikules stacija", , 57.6556224, 24.8938254, 4670, , , , , 
4671, 1266, "Puikules stacija", , 57.6561960, 24.8941462, 4671, , , , , 
4672, 1267, "Dzintari", , 57.6658035, 24.8893100, 4672, , , , , 
4673, 1267, "Dzintari", , 57.6664528, 24.8892813, 4673, , , , , 
4674, 1268, "Puikule", , 57.6850063, 24.8793411, 4674, , , , , 
4675, 1268, "Puikule", , 57.6856898, 24.8792621, 4675, , , , , 
4678, 1270, "Auseklis", , 57.7156878, 24.8808835, 4678, , , , , 
4679, 1270, "Auseklis", , 57.7165296, 24.8811922, 4679, , , , , 
4680, 1271, "Lindes", , 57.7290561, 24.8805916, 4680, , , , , 
4681, 1271, "Lindes", , 57.7297106, 24.8808082, 4681, , , , , 
4682, 1272, "Nikšas", , 57.7469801, 24.8788635, 4682, , , , , 
4683, 1272, "Nikšas", , 57.7482779, 24.8793273, 4683, , , , , 
4684, 1273, "Umurga", , 57.5123897, 24.8146294, 4684, , , , , 
4689, 1276, "Vainižu pasts", , 57.4829486, 24.8681860, 4689, , , , , 
4690, 1276, "Vainižu pasts", , 57.4824758, 24.8688015, 4690, , , , , 
4693, 1278, "Vainiži", , 57.4543780, 24.9160469, 4693, , , , , 
4694, 1278, "Vainiži", , 57.4556718, 24.9151233, 4694, , , , , 
4695, 1279, "Lēdurgas pagrieziens", , 57.2274509, 24.6919434, 4695, , , , , 
4696, 1279, "Lēdurgas pagrieziens", , 57.2284542, 24.6906258, 4696, , , , , 
4699, 1281, "Bīriņi", , 57.2485856, 24.6698034, 4699, , , , , 
4700, 1281, "Bīriņi", , 57.2482445, 24.6699954, 4700, , , , , 
4703, 1283, "Skultes", , 57.2910408, 24.6568662, 4703, , , , , 
4704, 1283, "Skultes", , 57.2918888, 24.6565762, 4704, , , , , 
4707, 1285, "Gravas", , 57.3290642, 24.6414813, 4707, , , , , 
4708, 1285, "Gravas", , 57.3290812, 24.6417332, 4708, , , , , 
4711, 1287, "Vidriži", , 57.3467695, 24.6601581, 4711, , , , , 
4712, 1287, "Vidriži", , 57.3475985, 24.6621369, 4712, , , , , 
4713, 1289, "Igate", , 57.3820649, 24.6846839, 4713, , , , , 
4716, 1291, "Dārtija", , 56.5827710, 24.1826761, 4716, , , , , 
4717, 1291, "Dārtija", , 56.5820867, 24.1817895, 4717, , , , , 
4718, 1292, "Lāde", , 57.4474977, 24.7243199, 4718, , , , , 
4719, 1292, "Lāde", , 57.4469407, 24.7244914, 4719, , , , , 
4720, 1293, "Pulkas", , 57.4604087, 24.7193223, 4720, , , , , 
4721, 1293, "Pulkas", , 57.4612049, 24.7191809, 4721, , , , , 
4722, 1295, "Jostiņas", , 57.8532210, 24.4290553, 4722, , , , , 
4723, 1295, "Jostiņas", , 57.8529066, 24.4300729, 4723, , , , , 
4728, 1298, "Mērnieki", , 57.8591331, 24.5077383, 4728, , , , , 
4729, 1298, "Mērnieki", , 57.8588930, 24.5080545, 4729, , , , , 
4730, 1299, "Mērnieku skola", , 57.8613696, 24.5394922, 4730, , , , , 
4731, 1299, "Mērnieku skola", , 57.8615851, 24.5403555, 4731, , , , , 
4734, 1301, "Līči", , 57.8721699, 24.5742092, 4734, , , , , 
4735, 1301, "Līči", , 57.8723152, 24.5749538, 4735, , , , , 
4736, 1302, "Apses", , 57.8860898, 24.6080129, 4736, , , , , 
4737, 1302, "Apses", , 57.8861990, 24.6086376, 4737, , , , , 
4740, 1304, "Rozēni", , 57.8834491, 24.6578378, 4740, , , , , 
4741, 1304, "Rozēni", , 57.8828225, 24.6582758, 4741, , , , , 
4742, 1305, "Mačkalni", , 57.8664539, 24.6884508, 4742, , , , , 
4743, 1305, "Mačkalni", , 57.8660463, 24.6886900, 4743, , , , , 
4746, 1307, "Staicele", , 57.8364387, 24.7441087, 4746, , , , , 
4747, 1307, "Staicele", , 57.8367120, 24.7435351, 4747, , , , , 
4750, 1309, "Karogi", , 57.8184744, 24.7825249, 4750, , , , , 
4751, 1309, "Karogi", , 57.8179242, 24.7833583, 4751, , , , , 
4754, 1311, "Ungurpils", , 57.7766607, 24.8147328, 4754, , , , , 
4755, 1311, "Ungurpils", , 57.7759637, 24.8167904, 4755, , , , , 
4758, 1313, "Sunīši", , 57.7530095, 24.9062165, 4758, , , , , 
4759, 1313, "Sunīši", , 57.7522351, 24.9087191, 4759, , , , , 
4764, 1316, "Urga", , 57.7331227, 24.9619624, 4764, , , , , 
4765, 1316, "Urga", , 57.7330210, 24.9618195, 4765, , , , , 
4768, 1318, "Vilzēni", , 57.7186229, 25.0139622, 4768, , , , , 
4769, 1318, "Vilzēni", , 57.7182587, 25.0155196, 4769, , , , , 
4770, 1320, "Skola", , 57.3498809, 24.4616706, 4770, , , , , 
4771, 1320, "Skola", , 57.3503633, 24.4646976, 4771, , , , , 
4776, 1323, "Gaiļi", , 57.3722758, 24.4933446, 4776, , , , , 
4777, 1323, "Gaiļi", , 57.3722830, 24.4937115, 4777, , , , , 
4780, 1325, "Menkuļi", , 57.3992900, 24.5096587, 4780, , , , , 
4781, 1325, "Menkuļi", , 57.3996509, 24.5099897, 4781, , , , , 
4784, 1327, "Stiene", , 57.4182250, 24.5283332, 4784, , , , , 
4786, 1327, "Stiene", , 57.4186016, 24.5290864, 4786, , , , , 
4787, 1331, "Stūrīši", , 57.4527129, 24.5808572, 4787, , , , , 
4788, 1331, "Stūrīši", , 57.4528514, 24.5819102, 4788, , , , , 
4791, 1333, "Mārstagi", , 57.4626139, 24.6352484, 4791, , , , , 
4792, 1333, "Mārstagi", , 57.4627668, 24.6358699, 4792, , , , , 
4795, 1335, "Langači", , 57.4899495, 24.6685839, 4795, , , , , 
4796, 1335, "Langači", , 57.4908082, 24.6689128, 4796, , , , , 
4797, 1336, "Vienība", , 56.3315633, 21.5353790, 4797, , , , , 
4798, 1341, "Lāmi", , 56.3533346, 21.3582672, 4798, , , , , 
4799, 1343, "Mazkalēti", , 56.3712327, 21.4215589, 4799, , , , , 
4800, 1344, "Kalēti", , 56.3607850, 21.4761658, 4800, , , , , 
4801, 1346, "Vētras", , 56.4018518, 23.0582580, 4801, , , , , 
4802, 1346, "Vētras", , 56.4009887, 23.0583315, 4802, , , , , 
4803, 1347, "Vanagi", , 56.3819109, 23.0482511, 4803, , , , , 
4804, 1347, "Vanagi", , 56.3812183, 23.0475694, 4804, , , , , 
4808, 9500, "Kuldīgas AO", , 56.9665456, 21.9605573, 4808, , , , , 
4810, 1352, "Drāznieki", , 56.2958652, 21.2055648, 4810, , , , , 
4811, 1358, "Sniķere", , 56.3995492, 23.1160343, 4811, , , , , 
4814, 1361, "Rucava", , 56.1592331, 21.1622799, 4814, , , , , 
4817, 1366, "Bukaiši", , 56.4012122, 23.2549495, 4817, , , , , 
4819, 1367, "Bukaišu skola", , 56.4112973, 23.2125439, 4819, , , , , 
4820, 1369, "Lauri", , 56.3602912, 21.0686869, 4820, , , , , 
4821, 1370, "Dunduri", , 56.3674569, 21.0652309, 4821, , , , , 
4822, 1371, "Rudes skola", , 56.3734416, 21.0888502, 4822, , , , , 
4823, 1373, "Otaņķi", , 56.3832936, 21.0987798, 4823, , , , , 
4824, 1374, "Otaņķu mežniecība", , 56.3978510, 21.1103399, 4824, , , , , 
4825, 1376, "Otaņķu pasts", , 56.4253918, 21.1002572, 4825, , , , , 
4826, 1377, "Arāji", , 56.4446737, 21.0956045, 4826, , , , , 
4827, 1378, "Saulkrasti", , 56.4666154, 21.1015390, 4827, , , , , 
4829, 1380, "Vītiņi", , 56.4958206, 21.1044654, 4829, , , , , 
4830, 1381, "Ālandes stacija", , 56.5246027, 21.1170844, 4830, , , , , 
4831, 1382, "Naukšēni", , 57.8834012, 25.4493000, 4831, , , , , 
4832, 1382, "Naukšēni", , 57.8832871, 25.4494947, 4832, , , , , 
4833, 1384, "Grobiņa (Namiķa iela)", , 56.5333558, 21.1569490, 4833, , , , , 
4834, 1385, "Tīsmēri", , 56.6134460, 23.2474609, 4834, , , , , 
4835, 1385, "Tīsmēri", , 56.6132007, 23.2461379, 4835, , , , , 
4838, 1388, "Niedrupes", , 56.5955191, 23.1473132, 4838, , , , , 
4839, 1388, "Niedrupes", , 56.5958003, 23.1485832, 4839, , , , , 
4840, 1389, "Mežaine", , 56.3241322, 20.9950623, 4840, , , , , 
4841, 1392, "Jūrmalciems", , 56.3001939, 20.9978094, 4841, , , , , 
4842, 1393, "Pokaiņi", , 56.5810520, 23.0745570, 4842, , , , , 
4843, 1393, "Pokaiņi", , 56.5807653, 23.0735497, 4843, , , , , 
4844, 1396, "Eglītes", , 56.3844882, 20.9929574, 4844, , , , , 
4845, 1397, "Bernāti", , 56.3789096, 20.9879606, 4845, , , , , 
4846, 1398, "Pātari", , 56.3739841, 20.9884026, 4846, , , , , 
4847, 1399, "Alpi", , 56.3694956, 20.9947371, 4847, , , , , 
4848, 1401, "Īles slimnīca", , 56.5520356, 23.0161812, 4848, , , , , 
4849, 1401, "Īles slimnīca", , 56.5523704, 23.0162739, 4849, , , , , 
4850, 1402, "Īle", , 56.5419796, 22.9993493, 4850, , , , , 
4851, 1402, "Īle", , 56.5414988, 22.9984923, 4851, , , , , 
4855, 1409, "Sikšņi", , 56.2631433, 21.2524633, 4855, , , , , 
4857, 1420, "Pētervalde", , 56.5706648, 23.1640418, 4857, , , , , 
4858, 1421, "Sējas", , 56.5576733, 23.1765087, 4858, , , , , 
4859, 1421, "Sējas", , 56.5581014, 23.1763788, 4859, , , , , 
4860, 1422, "NIP", , 56.7962790, 23.9241730, 4860, , , , , 
4862, 1423, "Apgulde", , 56.5327913, 23.2419320, 4862, , , , , 
4867, 1428, "Lielmušķi", , 56.4311001, 23.2788928, 4867, , , , , 
4868, 1429, "Pakaiši", , 56.5998678, 23.2609143, 4868, , , , , 
4869, 1429, "Pakaiši", , 56.5994956, 23.2604675, 4869, , , , , 
4870, 1430, "Smilgas", , 56.5809741, 23.2482554, 4870, , , , , 
4871, 1430, "Smilgas", , 56.5815652, 23.2486067, 4871, , , , , 
4872, 1435, "Bērzbeķe", , 56.6660034, 23.2359349, 4872, , , , , 
4873, 1435, "Bērzbeķe", , 56.6664124, 23.2355311, 4873, , , , , 
4874, 1437, "Aizstrautnieki", , 56.6876327, 23.2135413, 4874, , , , , 
4877, 1438, "Oši", , 56.6937295, 23.2027718, 4877, , , , , 
4878, 1441, "Bērze", , 56.6857421, 23.4390249, 4878, , , , , 
4882, 1449, "Apsītes", , 56.4668964, 23.4020534, 4882, , , , , 
4883, 1449, "Apsītes", , 56.4668740, 23.4019570, 4883, , , , , 
4884, 1450, "Likteņi", , 56.4515426, 23.4180794, 4884, , , , , 
4885, 1450, "Likteņi", , 56.4510850, 23.4199540, 4885, , , , , 
4886, 1452, "Bērziņi", , 56.6944749, 24.2421168, 4886, , , , , 
4888, 1452, "Bērziņi", , 56.6930921, 24.2414005, 4888, , , , , 
4889, 1453, "Dzimtmisa", , 56.6830944, 24.2385359, 4889, , , , , 
4890, 1453, "Dzimtmisa", , 56.6807883, 24.2381362, 4890, , , , , 
4891, 1454, "Dimzukalni", , 56.6668770, 24.2339570, 4891, , , , , 
4892, 1454, "Dimzukalni", , 56.6651575, 24.2336608, 4892, , , , , 
4893, 1455, "Salmiņi", , 56.6539946, 24.2304531, 4893, , , , , 
4894, 1455, "Salmiņi", , 56.6521945, 24.2297641, 4894, , , , , 
4895, 1456, "Saulgoži", , 56.6439962, 24.2275962, 4895, , , , , 
4896, 1456, "Saulgoži", , 56.6435049, 24.2270975, 4896, , , , , 
4897, 1458, "Plēpji", , 56.6148297, 24.2159770, 4897, , , , , 
4898, 1458, "Plēpji", , 56.6129635, 24.2149641, 4898, , , , , 
4899, 1461, "Zorģi", , 56.5705039, 24.1759952, 4899, , , , , 
4900, 1461, "Zorģi", , 56.5694850, 24.1755510, 4900, , , , , 
4901, 1462, "Šautleri", , 56.5539890, 24.1733190, 4901, , , , , 
4902, 1462, "Šautleri", , 56.5532660, 24.1734480, 4902, , , , , 
4903, 1463, "Smēdes", , 56.5362355, 24.1722127, 4903, , , , , 
4904, 1463, "Smēdes", , 56.5353790, 24.1716150, 4904, , , , , 
4905, 1464, "Ceļu meistari", , 56.5254175, 24.1714688, 4905, , , , , 
4906, 1464, "Ceļu meistari", , 56.5246486, 24.1715268, 4906, , , , , 
4907, 1465, "Dāliņi", , 56.5037063, 24.1738464, 4907, , , , , 
4908, 1465, "Dāliņi", , 56.5034082, 24.1738721, 4908, , , , , 
4909, 1466, "Spiģi", , 56.4864062, 24.1774766, 4909, , , , , 
4910, 1466, "Spiģi", , 56.4856810, 24.1775300, 4910, , , , , 
4911, 1467, "Butkas", , 56.4779260, 24.1727470, 4911, , , , , 
4912, 1467, "Butkas", , 56.4779690, 24.1729700, 4912, , , , , 
4913, 1468, "Code", , 56.4665470, 24.1632840, 4913, , , , , 
4914, 1468, "Code", , 56.4649716, 24.1627969, 4914, , , , , 
4915, 1469, "Bērzi", , 56.4510680, 24.1640256, 4915, , , , , 
4916, 1469, "Bērzi", , 56.4499416, 24.1640032, 4916, , , , , 
4917, 1470, "Mālnieki", , 56.4397359, 24.1718055, 4917, , , , , 
4918, 1470, "Mālnieki", , 56.4385475, 24.1728399, 4918, , , , , 
4919, 1471, "Jaunzemji", , 56.4332001, 24.1784851, 4919, , , , , 
4920, 1471, "Jaunzemji", , 56.4324946, 24.1791852, 4920, , , , , 
4921, 1472, "Kundziņkrogs", , 56.4168424, 24.1823543, 4921, , , , , 
4922, 1472, "Kundziņkrogs", , 56.4165440, 24.1821260, 4922, , , , , 
4923, 1459, "Darbnīcas", , 56.6047075, 24.2076392, 4923, , , , , 
4924, 1459, "Darbnīcas", , 56.6042930, 24.2068094, 4924, , , , , 
